trip_id,route_id,service_id,trip_headsign,direction_id,shape_id,route_short_name,route_long_name,route_type,stop_id,stop_name,stop_lat,stop_lon,arrival_time,departure_time,stop_sequence,wheelchair_boarding,wikidata_link
9010201_9__1__013_-9__1__013__2_00:40:00_1_re__27_9__1__013_,9__1__013_,9010201_9__1__013_,ESTUDIOS CINEMATOGRÁFICOS-MEDIODÍA,0,9__1__013__1_re_IT_2,1,L1 CIRCULAR (FFCC-Moreras-FFCC),3,par_8_09568,ESTACIÓN-EST.ARANJUEZ,40.0345268249512,-3.61783719062805,00:40:00,00:40:00,0,2,http://www.wikidata.org/entity/Q3394535
9010201_9__1__013_-9__1__013__2_00:40:00_1_re__27_9__1__013_,9__1__013_,9010201_9__1__013_,ESTUDIOS CINEMATOGRÁFICOS-MEDIODÍA,0,9__1__013__1_re_IT_2,1,L1 CIRCULAR (FFCC-Moreras-FFCC),3,par_8_21327,VALERAS-SAN ANTONIO,40.0337181091309,-3.60868763923645,00:40:00,00:40:00,1,0,http://www.wikidata.org/entity/Q111388619
9010201_9__1__013_-9__1__013__2_00:40:00_1_re__27_9__1__013_,9__1__013_,9010201_9__1__013_,ESTUDIOS CINEMATOGRÁFICOS-MEDIODÍA,0,9__1__013__1_re_IT_2,1,L1 CIRCULAR (FFCC-Moreras-FFCC),3,par_8_09572,ABASTOS-FLORIDA,40.0320510864258,-3.60703206062317,00:40:00,00:40:00,2,2,http://www.wikidata.org/entity/Q109946281
9010201_9__1__013_-9__1__013__2_00:40:00_1_re__27_9__1__013_,9__1__013_,9010201_9__1__013_,ESTUDIOS CINEMATOGRÁFICOS-MEDIODÍA,0,9__1__013__1_re_IT_2,1,L1 CIRCULAR (FFCC-Moreras-FFCC),3,par_8_09576,ABASTOS-AYUNTAMIENTO,40.0319328308105,-3.60386633872986,00:40:00,00:40:00,3,2,http://www.wikidata.org/entity/Q126830041
9010201_9__1__013_-9__1__013__2_00:40:00_1_re__27_9__1__013_,9__1__013_,9010201_9__1__013_,ESTUDIOS CINEMATOGRÁFICOS-MEDIODÍA,0,9__1__013__1_re_IT_2,1,L1 CIRCULAR (FFCC-Moreras-FFCC),3,par_8_09640,ABASTOS-CONCHA,40.0317115783691,-3.60102796554565,00:40:00,00:40:00,4,2,http://www.wikidata.org/entity/Q42200530
9010201_9__1__013_-9__1__013__2_00:40:00_1_re__27_9__1__013_,9__1__013_,9010201_9__1__013_,ESTUDIOS CINEMATOGRÁFICOS-MEDIODÍA,0,9__1__013__1_re_IT_2,1,L1 CIRCULAR (FFCC-Moreras-FFCC),3,par_8_09584,FOSO-GOBERNADOR,40.0323944091797,-3.59809231758118,00:40:00,00:40:00,5,2,http://www.wikidata.org/entity/Q27038964
9010201_9__1__013_-9__1__013__2_00:40:00_1_re__27_9__1__013_,9__1__013_,9010201_9__1__013_,ESTUDIOS CINEMATOGRÁFICOS-MEDIODÍA,0,9__1__013__1_re_IT_2,1,L1 CIRCULAR (FFCC-Moreras-FFCC),3,par_8_09585,FOSO-INFANTAS,40.0333786010742,-3.59798359870911,00:40:00,00:40:00,6,2,http://www.wikidata.org/entity/Q8343724
9010201_9__1__013_-9__1__013__2_00:40:00_1_re__27_9__1__013_,9__1__013_,9010201_9__1__013_,ESTUDIOS CINEMATOGRÁFICOS-MEDIODÍA,0,9__1__013__1_re_IT_2,1,L1 CIRCULAR (FFCC-Moreras-FFCC),3,par_8_09590,MORERAS-LA BARRACA DE FEDERICO GªLORCA,40.0354804992676,-3.59678292274475,00:40:00,00:40:00,7,2,http://www.wikidata.org/entity/Q5909173
9010201_9__1__013_-9__1__013__2_00:40:00_1_re__27_9__1__013_,9__1__013_,9010201_9__1__013_,ESTUDIOS CINEMATOGRÁFICOS-MEDIODÍA,0,9__1__013__1_re_IT_2,1,L1 CIRCULAR (FFCC-Moreras-FFCC),3,par_8_09592,MORERAS-ANCHA,40.0353317260742,-3.59467196464539,00:40:00,00:40:00,8,2,http://www.wikidata.org/entity/Q85696104
9010201_9__1__013_-9__1__013__2_00:40:00_1_re__27_9__1__013_,9__1__013_,9010201_9__1__013_,ESTUDIOS CINEMATOGRÁFICOS-MEDIODÍA,0,9__1__013__1_re_IT_2,1,L1 CIRCULAR (FFCC-Moreras-FFCC),3,par_8_09593,MORERAS-PRIMERO DE MAYO,40.035213470459,-3.59281897544861,00:40:00,00:40:00,9,2,http://www.wikidata.org/entity/Q85696104
9010201_9__1__013_-9__1__013__2_00:40:00_1_re__27_9__1__013_,9__1__013_,9010201_9__1__013_,ESTUDIOS CINEMATOGRÁFICOS-MEDIODÍA,0,9__1__013__1_re_IT_2,1,L1 CIRCULAR (FFCC-Moreras-FFCC),3,par_8_17126,PRIMERO DE MAYO-POLIDEPORTIVO,40.0340423583984,-3.59273838996887,00:40:00,00:40:00,10,2,http://www.wikidata.org/entity/Q85696104
9010201_9__1__013_-9__1__013__2_00:40:00_1_re__27_9__1__013_,9__1__013_,9010201_9__1__013_,ESTUDIOS CINEMATOGRÁFICOS-MEDIODÍA,0,9__1__013__1_re_IT_2,1,L1 CIRCULAR (FFCC-Moreras-FFCC),3,par_8_09577,GTA.NUEVO ARANJUEZ-CUARTELES,40.0324363708496,-3.5931932926178,00:40:00,00:40:00,11,2,http://www.wikidata.org/entity/Q24024570
9010201_9__1__013_-9__1__013__2_00:40:00_1_re__27_9__1__013_,9__1__013_,9010201_9__1__013_,ESTUDIOS CINEMATOGRÁFICOS-MEDIODÍA,0,9__1__013__1_re_IT_2,1,L1 CIRCULAR (FFCC-Moreras-FFCC),3,par_8_09597,MORERAS-COLEGIO,40.0349349975586,-3.58926510810852,00:40:00,00:40:00,12,2,http://www.wikidata.org/entity/Q85696104
9010201_9__1__013_-9__1__013__2_00:40:00_1_re__27_9__1__013_,9__1__013_,9010201_9__1__013_,ESTUDIOS CINEMATOGRÁFICOS-MEDIODÍA,0,9__1__013__1_re_IT_2,1,L1 CIRCULAR (FFCC-Moreras-FFCC),3,par_8_16102,MORERAS-AUGUSTO MORENO,40.0346069335938,-3.584632396698,00:40:00,00:40:00,13,2,http://www.wikidata.org/entity/Q85696104
9010201_9__1__013_-9__1__013__2_00:40:00_1_re__27_9__1__013_,9__1__013_,9010201_9__1__013_,ESTUDIOS CINEMATOGRÁFICOS-MEDIODÍA,0,9__1__013__1_re_IT_2,1,L1 CIRCULAR (FFCC-Moreras-FFCC),3,par_8_20631,CARAMILLAR-NORIA,40.0358085632324,-3.57899308204651,00:40:00,00:40:00,14,0,http://www.wikidata.org/entity/Q5755509
9010201_9__1__013_-9__1__013__2_00:40:00_1_re__27_9__1__013_,9__1__013_,9010201_9__1__013_,ESTUDIOS CINEMATOGRÁFICOS-MEDIODÍA,0,9__1__013__1_re_IT_2,1,L1 CIRCULAR (FFCC-Moreras-FFCC),3,par_8_20632,ESTUDIOS CINEMATOGRÁFICOS-MEDIODÍA,40.037899017334,-3.57871770858765,00:40:00,00:40:00,15,0,http://www.wikidata.org/entity/Q5755509
9010201_9__1__013_-9__1__013__2_06:15:00_2_re__1_9__1__013_,9__1__013_,9010201_9__1__013_,ESTACIÓN-EST.ARANJUEZ,1,9__1__013__2_re_IT_2,1,L1 CIRCULAR (FFCC-Moreras-FFCC),3,par_8_20632,ESTUDIOS CINEMATOGRÁFICOS-MEDIODÍA,40.037899017334,-3.57871770858765,06:15:00,06:15:00,0,0,http://www.wikidata.org/entity/Q5755509
9010201_9__1__013_-9__1__013__2_06:15:00_2_re__1_9__1__013_,9__1__013_,9010201_9__1__013_,ESTACIÓN-EST.ARANJUEZ,1,9__1__013__2_re_IT_2,1,L1 CIRCULAR (FFCC-Moreras-FFCC),3,par_8_20633,CECILIO LÁZARO-VÍCTIMAS DEL TERRORISMO,40.0358238220215,-3.58082175254822,06:15:00,06:15:00,1,0,http://www.wikidata.org/entity/Q5755509
9010201_9__1__013_-9__1__013__2_06:15:00_2_re__1_9__1__013_,9__1__013_,9010201_9__1__013_,ESTACIÓN-EST.ARANJUEZ,1,9__1__013__2_re_IT_2,1,L1 CIRCULAR (FFCC-Moreras-FFCC),3,par_8_16768,MORERAS-JULIO VALDEÓN,40.0347328186035,-3.58466863632202,06:15:00,06:15:00,2,2,http://www.wikidata.org/entity/Q85696104
9010201_9__1__013_-9__1__013__2_06:15:00_2_re__1_9__1__013_,9__1__013_,9010201_9__1__013_,ESTACIÓN-EST.ARANJUEZ,1,9__1__013__2_re_IT_2,1,L1 CIRCULAR (FFCC-Moreras-FFCC),3,par_8_20630,ÁLVAREZ DE QUINDOS-CÁNDIDO LÓPEZ Y MALTA,40.0346527099609,-3.58845376968384,06:15:00,06:15:00,3,0,http://www.wikidata.org/entity/Q85696104
9010201_9__1__013_-9__1__013__2_06:15:00_2_re__1_9__1__013_,9__1__013_,9010201_9__1__013_,ESTACIÓN-EST.ARANJUEZ,1,9__1__013__2_re_IT_2,1,L1 CIRCULAR (FFCC-Moreras-FFCC),3,par_8_20627,ALVAREZ DE QUINDOS-CUARTELES,40.0328063964844,-3.58992648124695,06:15:00,06:15:00,4,0,http://www.wikidata.org/entity/Q85696104
9010201_9__1__013_-9__1__013__2_06:15:00_2_re__1_9__1__013_,9__1__013_,9010201_9__1__013_,ESTACIÓN-EST.ARANJUEZ,1,9__1__013__2_re_IT_2,1,L1 CIRCULAR (FFCC-Moreras-FFCC),3,par_8_16763,GTA.NUEVO ARANJUEZ-PRIMERO DE MAYO,40.0324859619141,-3.59264302253723,06:15:00,06:15:00,5,2,http://www.wikidata.org/entity/Q24024570
9010201_9__1__013_-9__1__013__2_06:15:00_2_re__1_9__1__013_,9__1__013_,9010201_9__1__013_,ESTACIÓN-EST.ARANJUEZ,1,9__1__013__2_re_IT_2,1,L1 CIRCULAR (FFCC-Moreras-FFCC),3,par_8_09602,PRIMERO DE MAYO-POLIDEPORTIVO,40.0340003967285,-3.59256219863892,06:15:00,06:15:00,6,2,http://www.wikidata.org/entity/Q85696104
9010201_9__1__013_-9__1__013__2_06:15:00_2_re__1_9__1__013_,9__1__013_,9010201_9__1__013_,ESTACIÓN-EST.ARANJUEZ,1,9__1__013__2_re_IT_2,1,L1 CIRCULAR (FFCC-Moreras-FFCC),3,par_8_09594,MORERAS-PRIMERO DE MAYO,40.0353126525879,-3.59279632568359,06:15:00,06:15:00,7,2,http://www.wikidata.org/entity/Q85696104
9010201_9__1__013_-9__1__013__2_06:15:00_2_re__1_9__1__013_,9__1__013_,9010201_9__1__013_,ESTACIÓN-EST.ARANJUEZ,1,9__1__013__2_re_IT_2,1,L1 CIRCULAR (FFCC-Moreras-FFCC),3,par_8_09591,MORERAS-ANCHA,40.035457611084,-3.59477853775024,06:15:00,06:15:00,8,2,http://www.wikidata.org/entity/Q5909173
9010201_9__1__013_-9__1__013__2_06:15:00_2_re__1_9__1__013_,9__1__013_,9010201_9__1__013_,ESTACIÓN-EST.ARANJUEZ,1,9__1__013__2_re_IT_2,1,L1 CIRCULAR (FFCC-Moreras-FFCC),3,par_8_09588,PRÍNCIPE-IGLESIA,40.0357513427734,-3.59848499298096,06:15:00,06:15:00,9,2,http://www.wikidata.org/entity/Q135485669
9010201_9__1__013_-9__1__013__2_06:15:00_2_re__1_9__1__013_,9__1__013_,9010201_9__1__013_,ESTACIÓN-EST.ARANJUEZ,1,9__1__013__2_re_IT_2,1,L1 CIRCULAR (FFCC-Moreras-FFCC),3,par_8_19407,INFANTAS-CAP.ANGOSTO GÓMEZ CASTRILLÓN,40.0348091125488,-3.60132479667664,06:15:00,06:15:00,10,0,http://www.wikidata.org/entity/Q8343724
9010201_9__1__013_-9__1__013__2_06:15:00_2_re__1_9__1__013_,9__1__013_,9010201_9__1__013_,ESTACIÓN-EST.ARANJUEZ,1,9__1__013__2_re_IT_2,1,L1 CIRCULAR (FFCC-Moreras-FFCC),3,par_8_09583,REY-AUDITORIO,40.0323905944824,-3.60051822662354,06:15:00,06:15:00,11,2,http://www.wikidata.org/entity/Q27038964
9010201_9__1__013_-9__1__013__2_06:15:00_2_re__1_9__1__013_,9__1__013_,9010201_9__1__013_,ESTACIÓN-EST.ARANJUEZ,1,9__1__013__2_re_IT_2,1,L1 CIRCULAR (FFCC-Moreras-FFCC),3,par_8_16754,GOBERNADOR-ALMÍBAR,40.0324363708496,-3.60239410400391,06:15:00,06:15:00,12,2,http://www.wikidata.org/entity/Q109946504
9010201_9__1__013_-9__1__013__2_06:15:00_2_re__1_9__1__013_,9__1__013_,9010201_9__1__013_,ESTACIÓN-EST.ARANJUEZ,1,9__1__013__2_re_IT_2,1,L1 CIRCULAR (FFCC-Moreras-FFCC),3,par_8_09571,GOBERNADOR-MERCADO DE ABASTOS,40.0326385498047,-3.60506820678711,06:15:00,06:15:00,13,2,http://www.wikidata.org/entity/Q6010514
9010201_9__1__013_-9__1__013__2_06:15:00_2_re__1_9__1__013_,9__1__013_,9010201_9__1__013_,ESTACIÓN-EST.ARANJUEZ,1,9__1__013__2_re_IT_2,1,L1 CIRCULAR (FFCC-Moreras-FFCC),3,par_8_09573,GOBERNADOR-VALERAS,40.032772064209,-3.60856199264526,06:15:00,06:15:00,14,2,http://www.wikidata.org/entity/Q111388619
9010201_9__1__013_-9__1__013__2_06:15:00_2_re__1_9__1__013_,9__1__013_,9010201_9__1__013_,ESTACIÓN-EST.ARANJUEZ,1,9__1__013__2_re_IT_2,1,L1 CIRCULAR (FFCC-Moreras-FFCC),3,par_8_21328,VALERAS-SAN ANTONIO,40.0337829589844,-3.60854744911194,06:15:00,06:15:00,15,0,http://www.wikidata.org/entity/Q111388619
9010201_9__1__013_-9__1__013__2_06:15:00_2_re__1_9__1__013_,9__1__013_,9010201_9__1__013_,ESTACIÓN-EST.ARANJUEZ,1,9__1__013__2_re_IT_2,1,L1 CIRCULAR (FFCC-Moreras-FFCC),3,par_8_09568,ESTACIÓN-EST.ARANJUEZ,40.0345268249512,-3.61783719062805,06:15:00,06:15:00,16,2,http://www.wikidata.org/entity/Q3394535
9010201_9__1__013_-9__1__013__2_06:45:00_1_-__1_9__1__013_,9__1__013_,9010201_9__1__013_,ESTACIÓN-EST.ARANJUEZ,0,9__1__013__1_-_IT_1,1,L1 CIRCULAR (FFCC-Moreras-FFCC),3,par_8_09568,ESTACIÓN-EST.ARANJUEZ,40.0345268249512,-3.61783719062805,06:45:00,06:45:00,0,2,http://www.wikidata.org/entity/Q3394535
9010201_9__1__013_-9__1__013__2_06:45:00_1_-__1_9__1__013_,9__1__013_,9010201_9__1__013_,ESTACIÓN-EST.ARANJUEZ,0,9__1__013__1_-_IT_1,1,L1 CIRCULAR (FFCC-Moreras-FFCC),3,par_8_21327,VALERAS-SAN ANTONIO,40.0337181091309,-3.60868763923645,06:45:00,06:45:00,1,0,http://www.wikidata.org/entity/Q111388619
9010201_9__1__013_-9__1__013__2_06:45:00_1_-__1_9__1__013_,9__1__013_,9010201_9__1__013_,ESTACIÓN-EST.ARANJUEZ,0,9__1__013__1_-_IT_1,1,L1 CIRCULAR (FFCC-Moreras-FFCC),3,par_8_09572,ABASTOS-FLORIDA,40.0320510864258,-3.60703206062317,06:45:00,06:45:00,2,2,http://www.wikidata.org/entity/Q109946281
9010201_9__1__013_-9__1__013__2_06:45:00_1_-__1_9__1__013_,9__1__013_,9010201_9__1__013_,ESTACIÓN-EST.ARANJUEZ,0,9__1__013__1_-_IT_1,1,L1 CIRCULAR (FFCC-Moreras-FFCC),3,par_8_09576,ABASTOS-AYUNTAMIENTO,40.0319328308105,-3.60386633872986,06:45:00,06:45:00,3,2,http://www.wikidata.org/entity/Q126830041
9010201_9__1__013_-9__1__013__2_06:45:00_1_-__1_9__1__013_,9__1__013_,9010201_9__1__013_,ESTACIÓN-EST.ARANJUEZ,0,9__1__013__1_-_IT_1,1,L1 CIRCULAR (FFCC-Moreras-FFCC),3,par_8_09640,ABASTOS-CONCHA,40.0317115783691,-3.60102796554565,06:45:00,06:45:00,4,2,http://www.wikidata.org/entity/Q42200530
9010201_9__1__013_-9__1__013__2_06:45:00_1_-__1_9__1__013_,9__1__013_,9010201_9__1__013_,ESTACIÓN-EST.ARANJUEZ,0,9__1__013__1_-_IT_1,1,L1 CIRCULAR (FFCC-Moreras-FFCC),3,par_8_09584,FOSO-GOBERNADOR,40.0323944091797,-3.59809231758118,06:45:00,06:45:00,5,2,http://www.wikidata.org/entity/Q27038964
9010201_9__1__013_-9__1__013__2_06:45:00_1_-__1_9__1__013_,9__1__013_,9010201_9__1__013_,ESTACIÓN-EST.ARANJUEZ,0,9__1__013__1_-_IT_1,1,L1 CIRCULAR (FFCC-Moreras-FFCC),3,par_8_09585,FOSO-INFANTAS,40.0333786010742,-3.59798359870911,06:45:00,06:45:00,6,2,http://www.wikidata.org/entity/Q8343724
9010201_9__1__013_-9__1__013__2_06:45:00_1_-__1_9__1__013_,9__1__013_,9010201_9__1__013_,ESTACIÓN-EST.ARANJUEZ,0,9__1__013__1_-_IT_1,1,L1 CIRCULAR (FFCC-Moreras-FFCC),3,par_8_09590,MORERAS-LA BARRACA DE FEDERICO GªLORCA,40.0354804992676,-3.59678292274475,06:45:00,06:45:00,7,2,http://www.wikidata.org/entity/Q5909173
9010201_9__1__013_-9__1__013__2_06:45:00_1_-__1_9__1__013_,9__1__013_,9010201_9__1__013_,ESTACIÓN-EST.ARANJUEZ,0,9__1__013__1_-_IT_1,1,L1 CIRCULAR (FFCC-Moreras-FFCC),3,par_8_09592,MORERAS-ANCHA,40.0353317260742,-3.59467196464539,06:45:00,06:45:00,8,2,http://www.wikidata.org/entity/Q85696104
9010201_9__1__013_-9__1__013__2_06:45:00_1_-__1_9__1__013_,9__1__013_,9010201_9__1__013_,ESTACIÓN-EST.ARANJUEZ,0,9__1__013__1_-_IT_1,1,L1 CIRCULAR (FFCC-Moreras-FFCC),3,par_8_09593,MORERAS-PRIMERO DE MAYO,40.035213470459,-3.59281897544861,06:45:00,06:45:00,9,2,http://www.wikidata.org/entity/Q85696104
9010201_9__1__013_-9__1__013__2_06:45:00_1_-__1_9__1__013_,9__1__013_,9010201_9__1__013_,ESTACIÓN-EST.ARANJUEZ,0,9__1__013__1_-_IT_1,1,L1 CIRCULAR (FFCC-Moreras-FFCC),3,par_8_17126,PRIMERO DE MAYO-POLIDEPORTIVO,40.0340423583984,-3.59273838996887,06:45:00,06:45:00,10,2,http://www.wikidata.org/entity/Q85696104
9010201_9__1__013_-9__1__013__2_06:45:00_1_-__1_9__1__013_,9__1__013_,9010201_9__1__013_,ESTACIÓN-EST.ARANJUEZ,0,9__1__013__1_-_IT_1,1,L1 CIRCULAR (FFCC-Moreras-FFCC),3,par_8_09577,GTA.NUEVO ARANJUEZ-CUARTELES,40.0324363708496,-3.5931932926178,06:45:00,06:45:00,11,2,http://www.wikidata.org/entity/Q24024570
9010201_9__1__013_-9__1__013__2_06:45:00_1_-__1_9__1__013_,9__1__013_,9010201_9__1__013_,ESTACIÓN-EST.ARANJUEZ,0,9__1__013__1_-_IT_1,1,L1 CIRCULAR (FFCC-Moreras-FFCC),3,par_8_09597,MORERAS-COLEGIO,40.0349349975586,-3.58926510810852,06:45:00,06:45:00,12,2,http://www.wikidata.org/entity/Q85696104
9010201_9__1__013_-9__1__013__2_06:45:00_1_-__1_9__1__013_,9__1__013_,9010201_9__1__013_,ESTACIÓN-EST.ARANJUEZ,0,9__1__013__1_-_IT_1,1,L1 CIRCULAR (FFCC-Moreras-FFCC),3,par_8_16102,MORERAS-AUGUSTO MORENO,40.0346069335938,-3.584632396698,06:45:00,06:45:00,13,2,http://www.wikidata.org/entity/Q85696104
9010201_9__1__013_-9__1__013__2_06:45:00_1_-__1_9__1__013_,9__1__013_,9010201_9__1__013_,ESTACIÓN-EST.ARANJUEZ,0,9__1__013__1_-_IT_1,1,L1 CIRCULAR (FFCC-Moreras-FFCC),3,par_8_20631,CARAMILLAR-NORIA,40.0358085632324,-3.57899308204651,06:45:00,06:45:00,14,0,http://www.wikidata.org/entity/Q5755509
9010201_9__1__013_-9__1__013__2_06:45:00_1_-__1_9__1__013_,9__1__013_,9010201_9__1__013_,ESTACIÓN-EST.ARANJUEZ,0,9__1__013__1_-_IT_1,1,L1 CIRCULAR (FFCC-Moreras-FFCC),3,par_8_20632,ESTUDIOS CINEMATOGRÁFICOS-MEDIODÍA,40.037899017334,-3.57871770858765,06:45:00,06:45:00,15,0,http://www.wikidata.org/entity/Q5755509
9010201_9__1__013_-9__1__013__2_06:45:00_1_-__1_9__1__013_,9__1__013_,9010201_9__1__013_,ESTACIÓN-EST.ARANJUEZ,0,9__1__013__1_-_IT_1,1,L1 CIRCULAR (FFCC-Moreras-FFCC),3,par_8_20633,CECILIO LÁZARO-VÍCTIMAS DEL TERRORISMO,40.0358238220215,-3.58082175254822,06:45:00,06:45:00,16,0,http://www.wikidata.org/entity/Q5755509
9010201_9__1__013_-9__1__013__2_06:45:00_1_-__1_9__1__013_,9__1__013_,9010201_9__1__013_,ESTACIÓN-EST.ARANJUEZ,0,9__1__013__1_-_IT_1,1,L1 CIRCULAR (FFCC-Moreras-FFCC),3,par_8_16768,MORERAS-JULIO VALDEÓN,40.0347328186035,-3.58466863632202,06:45:00,06:45:00,17,2,http://www.wikidata.org/entity/Q85696104
9010201_9__1__013_-9__1__013__2_06:45:00_1_-__1_9__1__013_,9__1__013_,9010201_9__1__013_,ESTACIÓN-EST.ARANJUEZ,0,9__1__013__1_-_IT_1,1,L1 CIRCULAR (FFCC-Moreras-FFCC),3,par_8_20630,ÁLVAREZ DE QUINDOS-CÁNDIDO LÓPEZ Y MALTA,40.0346527099609,-3.58845376968384,06:45:00,06:45:00,18,0,http://www.wikidata.org/entity/Q85696104
9010201_9__1__013_-9__1__013__2_06:45:00_1_-__1_9__1__013_,9__1__013_,9010201_9__1__013_,ESTACIÓN-EST.ARANJUEZ,0,9__1__013__1_-_IT_1,1,L1 CIRCULAR (FFCC-Moreras-FFCC),3,par_8_20627,ALVAREZ DE QUINDOS-CUARTELES,40.0328063964844,-3.58992648124695,06:45:00,06:45:00,19,0,http://www.wikidata.org/entity/Q85696104
9010201_9__1__013_-9__1__013__2_06:45:00_1_-__1_9__1__013_,9__1__013_,9010201_9__1__013_,ESTACIÓN-EST.ARANJUEZ,0,9__1__013__1_-_IT_1,1,L1 CIRCULAR (FFCC-Moreras-FFCC),3,par_8_16763,GTA.NUEVO ARANJUEZ-PRIMERO DE MAYO,40.0324859619141,-3.59264302253723,06:45:00,06:45:00,20,2,http://www.wikidata.org/entity/Q24024570
9010201_9__1__013_-9__1__013__2_06:45:00_1_-__1_9__1__013_,9__1__013_,9010201_9__1__013_,ESTACIÓN-EST.ARANJUEZ,0,9__1__013__1_-_IT_1,1,L1 CIRCULAR (FFCC-Moreras-FFCC),3,par_8_09602,PRIMERO DE MAYO-POLIDEPORTIVO,40.0340003967285,-3.59256219863892,06:45:00,06:45:00,21,2,http://www.wikidata.org/entity/Q85696104
9010201_9__1__013_-9__1__013__2_06:45:00_1_-__1_9__1__013_,9__1__013_,9010201_9__1__013_,ESTACIÓN-EST.ARANJUEZ,0,9__1__013__1_-_IT_1,1,L1 CIRCULAR (FFCC-Moreras-FFCC),3,par_8_09594,MORERAS-PRIMERO DE MAYO,40.0353126525879,-3.59279632568359,06:45:00,06:45:00,22,2,http://www.wikidata.org/entity/Q85696104
9010201_9__1__013_-9__1__013__2_06:45:00_1_-__1_9__1__013_,9__1__013_,9010201_9__1__013_,ESTACIÓN-EST.ARANJUEZ,0,9__1__013__1_-_IT_1,1,L1 CIRCULAR (FFCC-Moreras-FFCC),3,par_8_09591,MORERAS-ANCHA,40.035457611084,-3.59477853775024,06:45:00,06:45:00,23,2,http://www.wikidata.org/entity/Q5909173
9010201_9__1__013_-9__1__013__2_06:45:00_1_-__1_9__1__013_,9__1__013_,9010201_9__1__013_,ESTACIÓN-EST.ARANJUEZ,0,9__1__013__1_-_IT_1,1,L1 CIRCULAR (FFCC-Moreras-FFCC),3,par_8_09588,PRÍNCIPE-IGLESIA,40.0357513427734,-3.59848499298096,06:45:00,06:45:00,24,2,http://www.wikidata.org/entity/Q135485669
9010201_9__1__013_-9__1__013__2_06:45:00_1_-__1_9__1__013_,9__1__013_,9010201_9__1__013_,ESTACIÓN-EST.ARANJUEZ,0,9__1__013__1_-_IT_1,1,L1 CIRCULAR (FFCC-Moreras-FFCC),3,par_8_19407,INFANTAS-CAP.ANGOSTO GÓMEZ CASTRILLÓN,40.0348091125488,-3.60132479667664,06:45:00,06:45:00,25,0,http://www.wikidata.org/entity/Q8343724
9010201_9__1__013_-9__1__013__2_06:45:00_1_-__1_9__1__013_,9__1__013_,9010201_9__1__013_,ESTACIÓN-EST.ARANJUEZ,0,9__1__013__1_-_IT_1,1,L1 CIRCULAR (FFCC-Moreras-FFCC),3,par_8_09583,REY-AUDITORIO,40.0323905944824,-3.60051822662354,06:45:00,06:45:00,26,2,http://www.wikidata.org/entity/Q27038964
9010201_9__1__013_-9__1__013__2_06:45:00_1_-__1_9__1__013_,9__1__013_,9010201_9__1__013_,ESTACIÓN-EST.ARANJUEZ,0,9__1__013__1_-_IT_1,1,L1 CIRCULAR (FFCC-Moreras-FFCC),3,par_8_16754,GOBERNADOR-ALMÍBAR,40.0324363708496,-3.60239410400391,06:45:00,06:45:00,27,2,http://www.wikidata.org/entity/Q109946504
9010201_9__1__013_-9__1__013__2_06:45:00_1_-__1_9__1__013_,9__1__013_,9010201_9__1__013_,ESTACIÓN-EST.ARANJUEZ,0,9__1__013__1_-_IT_1,1,L1 CIRCULAR (FFCC-Moreras-FFCC),3,par_8_09571,GOBERNADOR-MERCADO DE ABASTOS,40.0326385498047,-3.60506820678711,06:45:00,06:45:00,28,2,http://www.wikidata.org/entity/Q6010514
9010201_9__1__013_-9__1__013__2_06:45:00_1_-__1_9__1__013_,9__1__013_,9010201_9__1__013_,ESTACIÓN-EST.ARANJUEZ,0,9__1__013__1_-_IT_1,1,L1 CIRCULAR (FFCC-Moreras-FFCC),3,par_8_09573,GOBERNADOR-VALERAS,40.032772064209,-3.60856199264526,06:45:00,06:45:00,29,2,http://www.wikidata.org/entity/Q111388619
9010201_9__1__013_-9__1__013__2_06:45:00_1_-__1_9__1__013_,9__1__013_,9010201_9__1__013_,ESTACIÓN-EST.ARANJUEZ,0,9__1__013__1_-_IT_1,1,L1 CIRCULAR (FFCC-Moreras-FFCC),3,par_8_21328,VALERAS-SAN ANTONIO,40.0337829589844,-3.60854744911194,06:45:00,06:45:00,30,0,http://www.wikidata.org/entity/Q111388619
9010201_9__1__013_-9__1__013__2_06:45:00_1_-__1_9__1__013_,9__1__013_,9010201_9__1__013_,ESTACIÓN-EST.ARANJUEZ,0,9__1__013__1_-_IT_1,1,L1 CIRCULAR (FFCC-Moreras-FFCC),3,par_8_09568,ESTACIÓN-EST.ARANJUEZ,40.0345268249512,-3.61783719062805,06:45:00,06:45:00,31,2,http://www.wikidata.org/entity/Q3394535
9010201_9__1__013_-9__1__013__2_07:45:00_1_-__3_9__1__013_,9__1__013_,9010201_9__1__013_,ESTACIÓN-EST.ARANJUEZ,0,9__1__013__1_-_IT_1,1,L1 CIRCULAR (FFCC-Moreras-FFCC),3,par_8_09568,ESTACIÓN-EST.ARANJUEZ,40.0345268249512,-3.61783719062805,07:45:00,07:45:00,0,2,http://www.wikidata.org/entity/Q3394535
9010201_9__1__013_-9__1__013__2_07:45:00_1_-__3_9__1__013_,9__1__013_,9010201_9__1__013_,ESTACIÓN-EST.ARANJUEZ,0,9__1__013__1_-_IT_1,1,L1 CIRCULAR (FFCC-Moreras-FFCC),3,par_8_21327,VALERAS-SAN ANTONIO,40.0337181091309,-3.60868763923645,07:45:00,07:45:00,1,0,http://www.wikidata.org/entity/Q111388619
9010201_9__1__013_-9__1__013__2_07:45:00_1_-__3_9__1__013_,9__1__013_,9010201_9__1__013_,ESTACIÓN-EST.ARANJUEZ,0,9__1__013__1_-_IT_1,1,L1 CIRCULAR (FFCC-Moreras-FFCC),3,par_8_09572,ABASTOS-FLORIDA,40.0320510864258,-3.60703206062317,07:45:00,07:45:00,2,2,http://www.wikidata.org/entity/Q109946281
9010201_9__1__013_-9__1__013__2_07:45:00_1_-__3_9__1__013_,9__1__013_,9010201_9__1__013_,ESTACIÓN-EST.ARANJUEZ,0,9__1__013__1_-_IT_1,1,L1 CIRCULAR (FFCC-Moreras-FFCC),3,par_8_09576,ABASTOS-AYUNTAMIENTO,40.0319328308105,-3.60386633872986,07:45:00,07:45:00,3,2,http://www.wikidata.org/entity/Q126830041
9010201_9__1__013_-9__1__013__2_07:45:00_1_-__3_9__1__013_,9__1__013_,9010201_9__1__013_,ESTACIÓN-EST.ARANJUEZ,0,9__1__013__1_-_IT_1,1,L1 CIRCULAR (FFCC-Moreras-FFCC),3,par_8_09640,ABASTOS-CONCHA,40.0317115783691,-3.60102796554565,07:45:00,07:45:00,4,2,http://www.wikidata.org/entity/Q42200530
9010201_9__1__013_-9__1__013__2_07:45:00_1_-__3_9__1__013_,9__1__013_,9010201_9__1__013_,ESTACIÓN-EST.ARANJUEZ,0,9__1__013__1_-_IT_1,1,L1 CIRCULAR (FFCC-Moreras-FFCC),3,par_8_09584,FOSO-GOBERNADOR,40.0323944091797,-3.59809231758118,07:45:00,07:45:00,5,2,http://www.wikidata.org/entity/Q27038964
9010201_9__1__013_-9__1__013__2_07:45:00_1_-__3_9__1__013_,9__1__013_,9010201_9__1__013_,ESTACIÓN-EST.ARANJUEZ,0,9__1__013__1_-_IT_1,1,L1 CIRCULAR (FFCC-Moreras-FFCC),3,par_8_09585,FOSO-INFANTAS,40.0333786010742,-3.59798359870911,07:45:00,07:45:00,6,2,http://www.wikidata.org/entity/Q8343724
9010201_9__1__013_-9__1__013__2_07:45:00_1_-__3_9__1__013_,9__1__013_,9010201_9__1__013_,ESTACIÓN-EST.ARANJUEZ,0,9__1__013__1_-_IT_1,1,L1 CIRCULAR (FFCC-Moreras-FFCC),3,par_8_09590,MORERAS-LA BARRACA DE FEDERICO GªLORCA,40.0354804992676,-3.59678292274475,07:45:00,07:45:00,7,2,http://www.wikidata.org/entity/Q5909173
9010201_9__1__013_-9__1__013__2_07:45:00_1_-__3_9__1__013_,9__1__013_,9010201_9__1__013_,ESTACIÓN-EST.ARANJUEZ,0,9__1__013__1_-_IT_1,1,L1 CIRCULAR (FFCC-Moreras-FFCC),3,par_8_09592,MORERAS-ANCHA,40.0353317260742,-3.59467196464539,07:45:00,07:45:00,8,2,http://www.wikidata.org/entity/Q85696104
9010201_9__1__013_-9__1__013__2_07:45:00_1_-__3_9__1__013_,9__1__013_,9010201_9__1__013_,ESTACIÓN-EST.ARANJUEZ,0,9__1__013__1_-_IT_1,1,L1 CIRCULAR (FFCC-Moreras-FFCC),3,par_8_09593,MORERAS-PRIMERO DE MAYO,40.035213470459,-3.59281897544861,07:45:00,07:45:00,9,2,http://www.wikidata.org/entity/Q85696104
9010201_9__1__013_-9__1__013__2_07:45:00_1_-__3_9__1__013_,9__1__013_,9010201_9__1__013_,ESTACIÓN-EST.ARANJUEZ,0,9__1__013__1_-_IT_1,1,L1 CIRCULAR (FFCC-Moreras-FFCC),3,par_8_17126,PRIMERO DE MAYO-POLIDEPORTIVO,40.0340423583984,-3.59273838996887,07:45:00,07:45:00,10,2,http://www.wikidata.org/entity/Q85696104
9010201_9__1__013_-9__1__013__2_07:45:00_1_-__3_9__1__013_,9__1__013_,9010201_9__1__013_,ESTACIÓN-EST.ARANJUEZ,0,9__1__013__1_-_IT_1,1,L1 CIRCULAR (FFCC-Moreras-FFCC),3,par_8_09577,GTA.NUEVO ARANJUEZ-CUARTELES,40.0324363708496,-3.5931932926178,07:45:00,07:45:00,11,2,http://www.wikidata.org/entity/Q24024570
9010201_9__1__013_-9__1__013__2_07:45:00_1_-__3_9__1__013_,9__1__013_,9010201_9__1__013_,ESTACIÓN-EST.ARANJUEZ,0,9__1__013__1_-_IT_1,1,L1 CIRCULAR (FFCC-Moreras-FFCC),3,par_8_09597,MORERAS-COLEGIO,40.0349349975586,-3.58926510810852,07:45:00,07:45:00,12,2,http://www.wikidata.org/entity/Q85696104
9010201_9__1__013_-9__1__013__2_07:45:00_1_-__3_9__1__013_,9__1__013_,9010201_9__1__013_,ESTACIÓN-EST.ARANJUEZ,0,9__1__013__1_-_IT_1,1,L1 CIRCULAR (FFCC-Moreras-FFCC),3,par_8_16102,MORERAS-AUGUSTO MORENO,40.0346069335938,-3.584632396698,07:45:00,07:45:00,13,2,http://www.wikidata.org/entity/Q85696104
9010201_9__1__013_-9__1__013__2_07:45:00_1_-__3_9__1__013_,9__1__013_,9010201_9__1__013_,ESTACIÓN-EST.ARANJUEZ,0,9__1__013__1_-_IT_1,1,L1 CIRCULAR (FFCC-Moreras-FFCC),3,par_8_20631,CARAMILLAR-NORIA,40.0358085632324,-3.57899308204651,07:45:00,07:45:00,14,0,http://www.wikidata.org/entity/Q5755509
9010201_9__1__013_-9__1__013__2_07:45:00_1_-__3_9__1__013_,9__1__013_,9010201_9__1__013_,ESTACIÓN-EST.ARANJUEZ,0,9__1__013__1_-_IT_1,1,L1 CIRCULAR (FFCC-Moreras-FFCC),3,par_8_20632,ESTUDIOS CINEMATOGRÁFICOS-MEDIODÍA,40.037899017334,-3.57871770858765,07:45:00,07:45:00,15,0,http://www.wikidata.org/entity/Q5755509
9010201_9__1__013_-9__1__013__2_07:45:00_1_-__3_9__1__013_,9__1__013_,9010201_9__1__013_,ESTACIÓN-EST.ARANJUEZ,0,9__1__013__1_-_IT_1,1,L1 CIRCULAR (FFCC-Moreras-FFCC),3,par_8_20633,CECILIO LÁZARO-VÍCTIMAS DEL TERRORISMO,40.0358238220215,-3.58082175254822,07:45:00,07:45:00,16,0,http://www.wikidata.org/entity/Q5755509
9010201_9__1__013_-9__1__013__2_07:45:00_1_-__3_9__1__013_,9__1__013_,9010201_9__1__013_,ESTACIÓN-EST.ARANJUEZ,0,9__1__013__1_-_IT_1,1,L1 CIRCULAR (FFCC-Moreras-FFCC),3,par_8_16768,MORERAS-JULIO VALDEÓN,40.0347328186035,-3.58466863632202,07:45:00,07:45:00,17,2,http://www.wikidata.org/entity/Q85696104
9010201_9__1__013_-9__1__013__2_07:45:00_1_-__3_9__1__013_,9__1__013_,9010201_9__1__013_,ESTACIÓN-EST.ARANJUEZ,0,9__1__013__1_-_IT_1,1,L1 CIRCULAR (FFCC-Moreras-FFCC),3,par_8_20630,ÁLVAREZ DE QUINDOS-CÁNDIDO LÓPEZ Y MALTA,40.0346527099609,-3.58845376968384,07:45:00,07:45:00,18,0,http://www.wikidata.org/entity/Q85696104
9010201_9__1__013_-9__1__013__2_07:45:00_1_-__3_9__1__013_,9__1__013_,9010201_9__1__013_,ESTACIÓN-EST.ARANJUEZ,0,9__1__013__1_-_IT_1,1,L1 CIRCULAR (FFCC-Moreras-FFCC),3,par_8_20627,ALVAREZ DE QUINDOS-CUARTELES,40.0328063964844,-3.58992648124695,07:45:00,07:45:00,19,0,http://www.wikidata.org/entity/Q85696104
9010201_9__1__013_-9__1__013__2_07:45:00_1_-__3_9__1__013_,9__1__013_,9010201_9__1__013_,ESTACIÓN-EST.ARANJUEZ,0,9__1__013__1_-_IT_1,1,L1 CIRCULAR (FFCC-Moreras-FFCC),3,par_8_16763,GTA.NUEVO ARANJUEZ-PRIMERO DE MAYO,40.0324859619141,-3.59264302253723,07:45:00,07:45:00,20,2,http://www.wikidata.org/entity/Q24024570
9010201_9__1__013_-9__1__013__2_07:45:00_1_-__3_9__1__013_,9__1__013_,9010201_9__1__013_,ESTACIÓN-EST.ARANJUEZ,0,9__1__013__1_-_IT_1,1,L1 CIRCULAR (FFCC-Moreras-FFCC),3,par_8_09602,PRIMERO DE MAYO-POLIDEPORTIVO,40.0340003967285,-3.59256219863892,07:45:00,07:45:00,21,2,http://www.wikidata.org/entity/Q85696104
9010201_9__1__013_-9__1__013__2_07:45:00_1_-__3_9__1__013_,9__1__013_,9010201_9__1__013_,ESTACIÓN-EST.ARANJUEZ,0,9__1__013__1_-_IT_1,1,L1 CIRCULAR (FFCC-Moreras-FFCC),3,par_8_09594,MORERAS-PRIMERO DE MAYO,40.0353126525879,-3.59279632568359,07:45:00,07:45:00,22,2,http://www.wikidata.org/entity/Q85696104
9010201_9__1__013_-9__1__013__2_07:45:00_1_-__3_9__1__013_,9__1__013_,9010201_9__1__013_,ESTACIÓN-EST.ARANJUEZ,0,9__1__013__1_-_IT_1,1,L1 CIRCULAR (FFCC-Moreras-FFCC),3,par_8_09591,MORERAS-ANCHA,40.035457611084,-3.59477853775024,07:45:00,07:45:00,23,2,http://www.wikidata.org/entity/Q5909173
9010201_9__1__013_-9__1__013__2_07:45:00_1_-__3_9__1__013_,9__1__013_,9010201_9__1__013_,ESTACIÓN-EST.ARANJUEZ,0,9__1__013__1_-_IT_1,1,L1 CIRCULAR (FFCC-Moreras-FFCC),3,par_8_09588,PRÍNCIPE-IGLESIA,40.0357513427734,-3.59848499298096,07:45:00,07:45:00,24,2,http://www.wikidata.org/entity/Q135485669
9010201_9__1__013_-9__1__013__2_07:45:00_1_-__3_9__1__013_,9__1__013_,9010201_9__1__013_,ESTACIÓN-EST.ARANJUEZ,0,9__1__013__1_-_IT_1,1,L1 CIRCULAR (FFCC-Moreras-FFCC),3,par_8_19407,INFANTAS-CAP.ANGOSTO GÓMEZ CASTRILLÓN,40.0348091125488,-3.60132479667664,07:45:00,07:45:00,25,0,http://www.wikidata.org/entity/Q8343724
9010201_9__1__013_-9__1__013__2_07:45:00_1_-__3_9__1__013_,9__1__013_,9010201_9__1__013_,ESTACIÓN-EST.ARANJUEZ,0,9__1__013__1_-_IT_1,1,L1 CIRCULAR (FFCC-Moreras-FFCC),3,par_8_09583,REY-AUDITORIO,40.0323905944824,-3.60051822662354,07:45:00,07:45:00,26,2,http://www.wikidata.org/entity/Q27038964
9010201_9__1__013_-9__1__013__2_07:45:00_1_-__3_9__1__013_,9__1__013_,9010201_9__1__013_,ESTACIÓN-EST.ARANJUEZ,0,9__1__013__1_-_IT_1,1,L1 CIRCULAR (FFCC-Moreras-FFCC),3,par_8_16754,GOBERNADOR-ALMÍBAR,40.0324363708496,-3.60239410400391,07:45:00,07:45:00,27,2,http://www.wikidata.org/entity/Q109946504
9010201_9__1__013_-9__1__013__2_07:45:00_1_-__3_9__1__013_,9__1__013_,9010201_9__1__013_,ESTACIÓN-EST.ARANJUEZ,0,9__1__013__1_-_IT_1,1,L1 CIRCULAR (FFCC-Moreras-FFCC),3,par_8_09571,GOBERNADOR-MERCADO DE ABASTOS,40.0326385498047,-3.60506820678711,07:45:00,07:45:00,28,2,http://www.wikidata.org/entity/Q6010514
9010201_9__1__013_-9__1__013__2_07:45:00_1_-__3_9__1__013_,9__1__013_,9010201_9__1__013_,ESTACIÓN-EST.ARANJUEZ,0,9__1__013__1_-_IT_1,1,L1 CIRCULAR (FFCC-Moreras-FFCC),3,par_8_09573,GOBERNADOR-VALERAS,40.032772064209,-3.60856199264526,07:45:00,07:45:00,29,2,http://www.wikidata.org/entity/Q111388619
9010201_9__1__013_-9__1__013__2_07:45:00_1_-__3_9__1__013_,9__1__013_,9010201_9__1__013_,ESTACIÓN-EST.ARANJUEZ,0,9__1__013__1_-_IT_1,1,L1 CIRCULAR (FFCC-Moreras-FFCC),3,par_8_21328,VALERAS-SAN ANTONIO,40.0337829589844,-3.60854744911194,07:45:00,07:45:00,30,0,http://www.wikidata.org/entity/Q111388619
9010201_9__1__013_-9__1__013__2_07:45:00_1_-__3_9__1__013_,9__1__013_,9010201_9__1__013_,ESTACIÓN-EST.ARANJUEZ,0,9__1__013__1_-_IT_1,1,L1 CIRCULAR (FFCC-Moreras-FFCC),3,par_8_09568,ESTACIÓN-EST.ARANJUEZ,40.0345268249512,-3.61783719062805,07:45:00,07:45:00,31,2,http://www.wikidata.org/entity/Q3394535
9010201_9__1__013_-9__1__013__2_08:45:00_1_-__5_9__1__013_,9__1__013_,9010201_9__1__013_,ESTACIÓN-EST.ARANJUEZ,0,9__1__013__1_-_IT_1,1,L1 CIRCULAR (FFCC-Moreras-FFCC),3,par_8_09568,ESTACIÓN-EST.ARANJUEZ,40.0345268249512,-3.61783719062805,08:45:00,08:45:00,0,2,http://www.wikidata.org/entity/Q3394535
9010201_9__1__013_-9__1__013__2_08:45:00_1_-__5_9__1__013_,9__1__013_,9010201_9__1__013_,ESTACIÓN-EST.ARANJUEZ,0,9__1__013__1_-_IT_1,1,L1 CIRCULAR (FFCC-Moreras-FFCC),3,par_8_21327,VALERAS-SAN ANTONIO,40.0337181091309,-3.60868763923645,08:45:00,08:45:00,1,0,http://www.wikidata.org/entity/Q111388619
9010201_9__1__013_-9__1__013__2_08:45:00_1_-__5_9__1__013_,9__1__013_,9010201_9__1__013_,ESTACIÓN-EST.ARANJUEZ,0,9__1__013__1_-_IT_1,1,L1 CIRCULAR (FFCC-Moreras-FFCC),3,par_8_09572,ABASTOS-FLORIDA,40.0320510864258,-3.60703206062317,08:45:00,08:45:00,2,2,http://www.wikidata.org/entity/Q109946281
9010201_9__1__013_-9__1__013__2_08:45:00_1_-__5_9__1__013_,9__1__013_,9010201_9__1__013_,ESTACIÓN-EST.ARANJUEZ,0,9__1__013__1_-_IT_1,1,L1 CIRCULAR (FFCC-Moreras-FFCC),3,par_8_09576,ABASTOS-AYUNTAMIENTO,40.0319328308105,-3.60386633872986,08:45:00,08:45:00,3,2,http://www.wikidata.org/entity/Q126830041
9010201_9__1__013_-9__1__013__2_08:45:00_1_-__5_9__1__013_,9__1__013_,9010201_9__1__013_,ESTACIÓN-EST.ARANJUEZ,0,9__1__013__1_-_IT_1,1,L1 CIRCULAR (FFCC-Moreras-FFCC),3,par_8_09640,ABASTOS-CONCHA,40.0317115783691,-3.60102796554565,08:45:00,08:45:00,4,2,http://www.wikidata.org/entity/Q42200530
9010201_9__1__013_-9__1__013__2_08:45:00_1_-__5_9__1__013_,9__1__013_,9010201_9__1__013_,ESTACIÓN-EST.ARANJUEZ,0,9__1__013__1_-_IT_1,1,L1 CIRCULAR (FFCC-Moreras-FFCC),3,par_8_09584,FOSO-GOBERNADOR,40.0323944091797,-3.59809231758118,08:45:00,08:45:00,5,2,http://www.wikidata.org/entity/Q27038964
9010201_9__1__013_-9__1__013__2_08:45:00_1_-__5_9__1__013_,9__1__013_,9010201_9__1__013_,ESTACIÓN-EST.ARANJUEZ,0,9__1__013__1_-_IT_1,1,L1 CIRCULAR (FFCC-Moreras-FFCC),3,par_8_09585,FOSO-INFANTAS,40.0333786010742,-3.59798359870911,08:45:00,08:45:00,6,2,http://www.wikidata.org/entity/Q8343724
9010201_9__1__013_-9__1__013__2_08:45:00_1_-__5_9__1__013_,9__1__013_,9010201_9__1__013_,ESTACIÓN-EST.ARANJUEZ,0,9__1__013__1_-_IT_1,1,L1 CIRCULAR (FFCC-Moreras-FFCC),3,par_8_09590,MORERAS-LA BARRACA DE FEDERICO GªLORCA,40.0354804992676,-3.59678292274475,08:45:00,08:45:00,7,2,http://www.wikidata.org/entity/Q5909173
9010201_9__1__013_-9__1__013__2_08:45:00_1_-__5_9__1__013_,9__1__013_,9010201_9__1__013_,ESTACIÓN-EST.ARANJUEZ,0,9__1__013__1_-_IT_1,1,L1 CIRCULAR (FFCC-Moreras-FFCC),3,par_8_09592,MORERAS-ANCHA,40.0353317260742,-3.59467196464539,08:45:00,08:45:00,8,2,http://www.wikidata.org/entity/Q85696104
9010201_9__1__013_-9__1__013__2_08:45:00_1_-__5_9__1__013_,9__1__013_,9010201_9__1__013_,ESTACIÓN-EST.ARANJUEZ,0,9__1__013__1_-_IT_1,1,L1 CIRCULAR (FFCC-Moreras-FFCC),3,par_8_09593,MORERAS-PRIMERO DE MAYO,40.035213470459,-3.59281897544861,08:45:00,08:45:00,9,2,http://www.wikidata.org/entity/Q85696104
9010201_9__1__013_-9__1__013__2_08:45:00_1_-__5_9__1__013_,9__1__013_,9010201_9__1__013_,ESTACIÓN-EST.ARANJUEZ,0,9__1__013__1_-_IT_1,1,L1 CIRCULAR (FFCC-Moreras-FFCC),3,par_8_17126,PRIMERO DE MAYO-POLIDEPORTIVO,40.0340423583984,-3.59273838996887,08:45:00,08:45:00,10,2,http://www.wikidata.org/entity/Q85696104
9010201_9__1__013_-9__1__013__2_08:45:00_1_-__5_9__1__013_,9__1__013_,9010201_9__1__013_,ESTACIÓN-EST.ARANJUEZ,0,9__1__013__1_-_IT_1,1,L1 CIRCULAR (FFCC-Moreras-FFCC),3,par_8_09577,GTA.NUEVO ARANJUEZ-CUARTELES,40.0324363708496,-3.5931932926178,08:45:00,08:45:00,11,2,http://www.wikidata.org/entity/Q24024570
9010201_9__1__013_-9__1__013__2_08:45:00_1_-__5_9__1__013_,9__1__013_,9010201_9__1__013_,ESTACIÓN-EST.ARANJUEZ,0,9__1__013__1_-_IT_1,1,L1 CIRCULAR (FFCC-Moreras-FFCC),3,par_8_09597,MORERAS-COLEGIO,40.0349349975586,-3.58926510810852,08:45:00,08:45:00,12,2,http://www.wikidata.org/entity/Q85696104
9010201_9__1__013_-9__1__013__2_08:45:00_1_-__5_9__1__013_,9__1__013_,9010201_9__1__013_,ESTACIÓN-EST.ARANJUEZ,0,9__1__013__1_-_IT_1,1,L1 CIRCULAR (FFCC-Moreras-FFCC),3,par_8_16102,MORERAS-AUGUSTO MORENO,40.0346069335938,-3.584632396698,08:45:00,08:45:00,13,2,http://www.wikidata.org/entity/Q85696104
9010201_9__1__013_-9__1__013__2_08:45:00_1_-__5_9__1__013_,9__1__013_,9010201_9__1__013_,ESTACIÓN-EST.ARANJUEZ,0,9__1__013__1_-_IT_1,1,L1 CIRCULAR (FFCC-Moreras-FFCC),3,par_8_20631,CARAMILLAR-NORIA,40.0358085632324,-3.57899308204651,08:45:00,08:45:00,14,0,http://www.wikidata.org/entity/Q5755509
9010201_9__1__013_-9__1__013__2_08:45:00_1_-__5_9__1__013_,9__1__013_,9010201_9__1__013_,ESTACIÓN-EST.ARANJUEZ,0,9__1__013__1_-_IT_1,1,L1 CIRCULAR (FFCC-Moreras-FFCC),3,par_8_20632,ESTUDIOS CINEMATOGRÁFICOS-MEDIODÍA,40.037899017334,-3.57871770858765,08:45:00,08:45:00,15,0,http://www.wikidata.org/entity/Q5755509
9010201_9__1__013_-9__1__013__2_08:45:00_1_-__5_9__1__013_,9__1__013_,9010201_9__1__013_,ESTACIÓN-EST.ARANJUEZ,0,9__1__013__1_-_IT_1,1,L1 CIRCULAR (FFCC-Moreras-FFCC),3,par_8_20633,CECILIO LÁZARO-VÍCTIMAS DEL TERRORISMO,40.0358238220215,-3.58082175254822,08:45:00,08:45:00,16,0,http://www.wikidata.org/entity/Q5755509
9010201_9__1__013_-9__1__013__2_08:45:00_1_-__5_9__1__013_,9__1__013_,9010201_9__1__013_,ESTACIÓN-EST.ARANJUEZ,0,9__1__013__1_-_IT_1,1,L1 CIRCULAR (FFCC-Moreras-FFCC),3,par_8_16768,MORERAS-JULIO VALDEÓN,40.0347328186035,-3.58466863632202,08:45:00,08:45:00,17,2,http://www.wikidata.org/entity/Q85696104
9010201_9__1__013_-9__1__013__2_08:45:00_1_-__5_9__1__013_,9__1__013_,9010201_9__1__013_,ESTACIÓN-EST.ARANJUEZ,0,9__1__013__1_-_IT_1,1,L1 CIRCULAR (FFCC-Moreras-FFCC),3,par_8_20630,ÁLVAREZ DE QUINDOS-CÁNDIDO LÓPEZ Y MALTA,40.0346527099609,-3.58845376968384,08:45:00,08:45:00,18,0,http://www.wikidata.org/entity/Q85696104
9010201_9__1__013_-9__1__013__2_08:45:00_1_-__5_9__1__013_,9__1__013_,9010201_9__1__013_,ESTACIÓN-EST.ARANJUEZ,0,9__1__013__1_-_IT_1,1,L1 CIRCULAR (FFCC-Moreras-FFCC),3,par_8_20627,ALVAREZ DE QUINDOS-CUARTELES,40.0328063964844,-3.58992648124695,08:45:00,08:45:00,19,0,http://www.wikidata.org/entity/Q85696104
9010201_9__1__013_-9__1__013__2_08:45:00_1_-__5_9__1__013_,9__1__013_,9010201_9__1__013_,ESTACIÓN-EST.ARANJUEZ,0,9__1__013__1_-_IT_1,1,L1 CIRCULAR (FFCC-Moreras-FFCC),3,par_8_16763,GTA.NUEVO ARANJUEZ-PRIMERO DE MAYO,40.0324859619141,-3.59264302253723,08:45:00,08:45:00,20,2,http://www.wikidata.org/entity/Q24024570
9010201_9__1__013_-9__1__013__2_08:45:00_1_-__5_9__1__013_,9__1__013_,9010201_9__1__013_,ESTACIÓN-EST.ARANJUEZ,0,9__1__013__1_-_IT_1,1,L1 CIRCULAR (FFCC-Moreras-FFCC),3,par_8_09602,PRIMERO DE MAYO-POLIDEPORTIVO,40.0340003967285,-3.59256219863892,08:45:00,08:45:00,21,2,http://www.wikidata.org/entity/Q85696104
9010201_9__1__013_-9__1__013__2_08:45:00_1_-__5_9__1__013_,9__1__013_,9010201_9__1__013_,ESTACIÓN-EST.ARANJUEZ,0,9__1__013__1_-_IT_1,1,L1 CIRCULAR (FFCC-Moreras-FFCC),3,par_8_09594,MORERAS-PRIMERO DE MAYO,40.0353126525879,-3.59279632568359,08:45:00,08:45:00,22,2,http://www.wikidata.org/entity/Q85696104
9010201_9__1__013_-9__1__013__2_08:45:00_1_-__5_9__1__013_,9__1__013_,9010201_9__1__013_,ESTACIÓN-EST.ARANJUEZ,0,9__1__013__1_-_IT_1,1,L1 CIRCULAR (FFCC-Moreras-FFCC),3,par_8_09591,MORERAS-ANCHA,40.035457611084,-3.59477853775024,08:45:00,08:45:00,23,2,http://www.wikidata.org/entity/Q5909173
9010201_9__1__013_-9__1__013__2_08:45:00_1_-__5_9__1__013_,9__1__013_,9010201_9__1__013_,ESTACIÓN-EST.ARANJUEZ,0,9__1__013__1_-_IT_1,1,L1 CIRCULAR (FFCC-Moreras-FFCC),3,par_8_09588,PRÍNCIPE-IGLESIA,40.0357513427734,-3.59848499298096,08:45:00,08:45:00,24,2,http://www.wikidata.org/entity/Q135485669
9010201_9__1__013_-9__1__013__2_08:45:00_1_-__5_9__1__013_,9__1__013_,9010201_9__1__013_,ESTACIÓN-EST.ARANJUEZ,0,9__1__013__1_-_IT_1,1,L1 CIRCULAR (FFCC-Moreras-FFCC),3,par_8_19407,INFANTAS-CAP.ANGOSTO GÓMEZ CASTRILLÓN,40.0348091125488,-3.60132479667664,08:45:00,08:45:00,25,0,http://www.wikidata.org/entity/Q8343724
9010201_9__1__013_-9__1__013__2_08:45:00_1_-__5_9__1__013_,9__1__013_,9010201_9__1__013_,ESTACIÓN-EST.ARANJUEZ,0,9__1__013__1_-_IT_1,1,L1 CIRCULAR (FFCC-Moreras-FFCC),3,par_8_09583,REY-AUDITORIO,40.0323905944824,-3.60051822662354,08:45:00,08:45:00,26,2,http://www.wikidata.org/entity/Q27038964
9010201_9__1__013_-9__1__013__2_08:45:00_1_-__5_9__1__013_,9__1__013_,9010201_9__1__013_,ESTACIÓN-EST.ARANJUEZ,0,9__1__013__1_-_IT_1,1,L1 CIRCULAR (FFCC-Moreras-FFCC),3,par_8_16754,GOBERNADOR-ALMÍBAR,40.0324363708496,-3.60239410400391,08:45:00,08:45:00,27,2,http://www.wikidata.org/entity/Q109946504
9010201_9__1__013_-9__1__013__2_08:45:00_1_-__5_9__1__013_,9__1__013_,9010201_9__1__013_,ESTACIÓN-EST.ARANJUEZ,0,9__1__013__1_-_IT_1,1,L1 CIRCULAR (FFCC-Moreras-FFCC),3,par_8_09571,GOBERNADOR-MERCADO DE ABASTOS,40.0326385498047,-3.60506820678711,08:45:00,08:45:00,28,2,http://www.wikidata.org/entity/Q6010514
9010201_9__1__013_-9__1__013__2_08:45:00_1_-__5_9__1__013_,9__1__013_,9010201_9__1__013_,ESTACIÓN-EST.ARANJUEZ,0,9__1__013__1_-_IT_1,1,L1 CIRCULAR (FFCC-Moreras-FFCC),3,par_8_09573,GOBERNADOR-VALERAS,40.032772064209,-3.60856199264526,08:45:00,08:45:00,29,2,http://www.wikidata.org/entity/Q111388619
9010201_9__1__013_-9__1__013__2_08:45:00_1_-__5_9__1__013_,9__1__013_,9010201_9__1__013_,ESTACIÓN-EST.ARANJUEZ,0,9__1__013__1_-_IT_1,1,L1 CIRCULAR (FFCC-Moreras-FFCC),3,par_8_21328,VALERAS-SAN ANTONIO,40.0337829589844,-3.60854744911194,08:45:00,08:45:00,30,0,http://www.wikidata.org/entity/Q111388619
9010201_9__1__013_-9__1__013__2_08:45:00_1_-__5_9__1__013_,9__1__013_,9010201_9__1__013_,ESTACIÓN-EST.ARANJUEZ,0,9__1__013__1_-_IT_1,1,L1 CIRCULAR (FFCC-Moreras-FFCC),3,par_8_09568,ESTACIÓN-EST.ARANJUEZ,40.0345268249512,-3.61783719062805,08:45:00,08:45:00,31,2,http://www.wikidata.org/entity/Q3394535
9010201_9__1__013_-9__1__013__2_09:45:00_1_-__7_9__1__013_,9__1__013_,9010201_9__1__013_,ESTACIÓN-EST.ARANJUEZ,0,9__1__013__1_-_IT_1,1,L1 CIRCULAR (FFCC-Moreras-FFCC),3,par_8_09568,ESTACIÓN-EST.ARANJUEZ,40.0345268249512,-3.61783719062805,09:45:00,09:45:00,0,2,http://www.wikidata.org/entity/Q3394535
9010201_9__1__013_-9__1__013__2_09:45:00_1_-__7_9__1__013_,9__1__013_,9010201_9__1__013_,ESTACIÓN-EST.ARANJUEZ,0,9__1__013__1_-_IT_1,1,L1 CIRCULAR (FFCC-Moreras-FFCC),3,par_8_21327,VALERAS-SAN ANTONIO,40.0337181091309,-3.60868763923645,09:45:00,09:45:00,1,0,http://www.wikidata.org/entity/Q111388619
9010201_9__1__013_-9__1__013__2_09:45:00_1_-__7_9__1__013_,9__1__013_,9010201_9__1__013_,ESTACIÓN-EST.ARANJUEZ,0,9__1__013__1_-_IT_1,1,L1 CIRCULAR (FFCC-Moreras-FFCC),3,par_8_09572,ABASTOS-FLORIDA,40.0320510864258,-3.60703206062317,09:45:00,09:45:00,2,2,http://www.wikidata.org/entity/Q109946281
9010201_9__1__013_-9__1__013__2_09:45:00_1_-__7_9__1__013_,9__1__013_,9010201_9__1__013_,ESTACIÓN-EST.ARANJUEZ,0,9__1__013__1_-_IT_1,1,L1 CIRCULAR (FFCC-Moreras-FFCC),3,par_8_09576,ABASTOS-AYUNTAMIENTO,40.0319328308105,-3.60386633872986,09:45:00,09:45:00,3,2,http://www.wikidata.org/entity/Q126830041
9010201_9__1__013_-9__1__013__2_09:45:00_1_-__7_9__1__013_,9__1__013_,9010201_9__1__013_,ESTACIÓN-EST.ARANJUEZ,0,9__1__013__1_-_IT_1,1,L1 CIRCULAR (FFCC-Moreras-FFCC),3,par_8_09640,ABASTOS-CONCHA,40.0317115783691,-3.60102796554565,09:45:00,09:45:00,4,2,http://www.wikidata.org/entity/Q42200530
9010201_9__1__013_-9__1__013__2_09:45:00_1_-__7_9__1__013_,9__1__013_,9010201_9__1__013_,ESTACIÓN-EST.ARANJUEZ,0,9__1__013__1_-_IT_1,1,L1 CIRCULAR (FFCC-Moreras-FFCC),3,par_8_09584,FOSO-GOBERNADOR,40.0323944091797,-3.59809231758118,09:45:00,09:45:00,5,2,http://www.wikidata.org/entity/Q27038964
9010201_9__1__013_-9__1__013__2_09:45:00_1_-__7_9__1__013_,9__1__013_,9010201_9__1__013_,ESTACIÓN-EST.ARANJUEZ,0,9__1__013__1_-_IT_1,1,L1 CIRCULAR (FFCC-Moreras-FFCC),3,par_8_09585,FOSO-INFANTAS,40.0333786010742,-3.59798359870911,09:45:00,09:45:00,6,2,http://www.wikidata.org/entity/Q8343724
9010201_9__1__013_-9__1__013__2_09:45:00_1_-__7_9__1__013_,9__1__013_,9010201_9__1__013_,ESTACIÓN-EST.ARANJUEZ,0,9__1__013__1_-_IT_1,1,L1 CIRCULAR (FFCC-Moreras-FFCC),3,par_8_09590,MORERAS-LA BARRACA DE FEDERICO GªLORCA,40.0354804992676,-3.59678292274475,09:45:00,09:45:00,7,2,http://www.wikidata.org/entity/Q5909173
9010201_9__1__013_-9__1__013__2_09:45:00_1_-__7_9__1__013_,9__1__013_,9010201_9__1__013_,ESTACIÓN-EST.ARANJUEZ,0,9__1__013__1_-_IT_1,1,L1 CIRCULAR (FFCC-Moreras-FFCC),3,par_8_09592,MORERAS-ANCHA,40.0353317260742,-3.59467196464539,09:45:00,09:45:00,8,2,http://www.wikidata.org/entity/Q85696104
9010201_9__1__013_-9__1__013__2_09:45:00_1_-__7_9__1__013_,9__1__013_,9010201_9__1__013_,ESTACIÓN-EST.ARANJUEZ,0,9__1__013__1_-_IT_1,1,L1 CIRCULAR (FFCC-Moreras-FFCC),3,par_8_09593,MORERAS-PRIMERO DE MAYO,40.035213470459,-3.59281897544861,09:45:00,09:45:00,9,2,http://www.wikidata.org/entity/Q85696104
9010201_9__1__013_-9__1__013__2_09:45:00_1_-__7_9__1__013_,9__1__013_,9010201_9__1__013_,ESTACIÓN-EST.ARANJUEZ,0,9__1__013__1_-_IT_1,1,L1 CIRCULAR (FFCC-Moreras-FFCC),3,par_8_17126,PRIMERO DE MAYO-POLIDEPORTIVO,40.0340423583984,-3.59273838996887,09:45:00,09:45:00,10,2,http://www.wikidata.org/entity/Q85696104
9010201_9__1__013_-9__1__013__2_09:45:00_1_-__7_9__1__013_,9__1__013_,9010201_9__1__013_,ESTACIÓN-EST.ARANJUEZ,0,9__1__013__1_-_IT_1,1,L1 CIRCULAR (FFCC-Moreras-FFCC),3,par_8_09577,GTA.NUEVO ARANJUEZ-CUARTELES,40.0324363708496,-3.5931932926178,09:45:00,09:45:00,11,2,http://www.wikidata.org/entity/Q24024570
9010201_9__1__013_-9__1__013__2_09:45:00_1_-__7_9__1__013_,9__1__013_,9010201_9__1__013_,ESTACIÓN-EST.ARANJUEZ,0,9__1__013__1_-_IT_1,1,L1 CIRCULAR (FFCC-Moreras-FFCC),3,par_8_09597,MORERAS-COLEGIO,40.0349349975586,-3.58926510810852,09:45:00,09:45:00,12,2,http://www.wikidata.org/entity/Q85696104
9010201_9__1__013_-9__1__013__2_09:45:00_1_-__7_9__1__013_,9__1__013_,9010201_9__1__013_,ESTACIÓN-EST.ARANJUEZ,0,9__1__013__1_-_IT_1,1,L1 CIRCULAR (FFCC-Moreras-FFCC),3,par_8_16102,MORERAS-AUGUSTO MORENO,40.0346069335938,-3.584632396698,09:45:00,09:45:00,13,2,http://www.wikidata.org/entity/Q85696104
9010201_9__1__013_-9__1__013__2_09:45:00_1_-__7_9__1__013_,9__1__013_,9010201_9__1__013_,ESTACIÓN-EST.ARANJUEZ,0,9__1__013__1_-_IT_1,1,L1 CIRCULAR (FFCC-Moreras-FFCC),3,par_8_20631,CARAMILLAR-NORIA,40.0358085632324,-3.57899308204651,09:45:00,09:45:00,14,0,http://www.wikidata.org/entity/Q5755509
9010201_9__1__013_-9__1__013__2_09:45:00_1_-__7_9__1__013_,9__1__013_,9010201_9__1__013_,ESTACIÓN-EST.ARANJUEZ,0,9__1__013__1_-_IT_1,1,L1 CIRCULAR (FFCC-Moreras-FFCC),3,par_8_20632,ESTUDIOS CINEMATOGRÁFICOS-MEDIODÍA,40.037899017334,-3.57871770858765,09:45:00,09:45:00,15,0,http://www.wikidata.org/entity/Q5755509
9010201_9__1__013_-9__1__013__2_09:45:00_1_-__7_9__1__013_,9__1__013_,9010201_9__1__013_,ESTACIÓN-EST.ARANJUEZ,0,9__1__013__1_-_IT_1,1,L1 CIRCULAR (FFCC-Moreras-FFCC),3,par_8_20633,CECILIO LÁZARO-VÍCTIMAS DEL TERRORISMO,40.0358238220215,-3.58082175254822,09:45:00,09:45:00,16,0,http://www.wikidata.org/entity/Q5755509
9010201_9__1__013_-9__1__013__2_09:45:00_1_-__7_9__1__013_,9__1__013_,9010201_9__1__013_,ESTACIÓN-EST.ARANJUEZ,0,9__1__013__1_-_IT_1,1,L1 CIRCULAR (FFCC-Moreras-FFCC),3,par_8_16768,MORERAS-JULIO VALDEÓN,40.0347328186035,-3.58466863632202,09:45:00,09:45:00,17,2,http://www.wikidata.org/entity/Q85696104
9010201_9__1__013_-9__1__013__2_09:45:00_1_-__7_9__1__013_,9__1__013_,9010201_9__1__013_,ESTACIÓN-EST.ARANJUEZ,0,9__1__013__1_-_IT_1,1,L1 CIRCULAR (FFCC-Moreras-FFCC),3,par_8_20630,ÁLVAREZ DE QUINDOS-CÁNDIDO LÓPEZ Y MALTA,40.0346527099609,-3.58845376968384,09:45:00,09:45:00,18,0,http://www.wikidata.org/entity/Q85696104
9010201_9__1__013_-9__1__013__2_09:45:00_1_-__7_9__1__013_,9__1__013_,9010201_9__1__013_,ESTACIÓN-EST.ARANJUEZ,0,9__1__013__1_-_IT_1,1,L1 CIRCULAR (FFCC-Moreras-FFCC),3,par_8_20627,ALVAREZ DE QUINDOS-CUARTELES,40.0328063964844,-3.58992648124695,09:45:00,09:45:00,19,0,http://www.wikidata.org/entity/Q85696104
9010201_9__1__013_-9__1__013__2_09:45:00_1_-__7_9__1__013_,9__1__013_,9010201_9__1__013_,ESTACIÓN-EST.ARANJUEZ,0,9__1__013__1_-_IT_1,1,L1 CIRCULAR (FFCC-Moreras-FFCC),3,par_8_16763,GTA.NUEVO ARANJUEZ-PRIMERO DE MAYO,40.0324859619141,-3.59264302253723,09:45:00,09:45:00,20,2,http://www.wikidata.org/entity/Q24024570
9010201_9__1__013_-9__1__013__2_09:45:00_1_-__7_9__1__013_,9__1__013_,9010201_9__1__013_,ESTACIÓN-EST.ARANJUEZ,0,9__1__013__1_-_IT_1,1,L1 CIRCULAR (FFCC-Moreras-FFCC),3,par_8_09602,PRIMERO DE MAYO-POLIDEPORTIVO,40.0340003967285,-3.59256219863892,09:45:00,09:45:00,21,2,http://www.wikidata.org/entity/Q85696104
9010201_9__1__013_-9__1__013__2_09:45:00_1_-__7_9__1__013_,9__1__013_,9010201_9__1__013_,ESTACIÓN-EST.ARANJUEZ,0,9__1__013__1_-_IT_1,1,L1 CIRCULAR (FFCC-Moreras-FFCC),3,par_8_09594,MORERAS-PRIMERO DE MAYO,40.0353126525879,-3.59279632568359,09:45:00,09:45:00,22,2,http://www.wikidata.org/entity/Q85696104
9010201_9__1__013_-9__1__013__2_09:45:00_1_-__7_9__1__013_,9__1__013_,9010201_9__1__013_,ESTACIÓN-EST.ARANJUEZ,0,9__1__013__1_-_IT_1,1,L1 CIRCULAR (FFCC-Moreras-FFCC),3,par_8_09591,MORERAS-ANCHA,40.035457611084,-3.59477853775024,09:45:00,09:45:00,23,2,http://www.wikidata.org/entity/Q5909173
9010201_9__1__013_-9__1__013__2_09:45:00_1_-__7_9__1__013_,9__1__013_,9010201_9__1__013_,ESTACIÓN-EST.ARANJUEZ,0,9__1__013__1_-_IT_1,1,L1 CIRCULAR (FFCC-Moreras-FFCC),3,par_8_09588,PRÍNCIPE-IGLESIA,40.0357513427734,-3.59848499298096,09:45:00,09:45:00,24,2,http://www.wikidata.org/entity/Q135485669
9010201_9__1__013_-9__1__013__2_09:45:00_1_-__7_9__1__013_,9__1__013_,9010201_9__1__013_,ESTACIÓN-EST.ARANJUEZ,0,9__1__013__1_-_IT_1,1,L1 CIRCULAR (FFCC-Moreras-FFCC),3,par_8_19407,INFANTAS-CAP.ANGOSTO GÓMEZ CASTRILLÓN,40.0348091125488,-3.60132479667664,09:45:00,09:45:00,25,0,http://www.wikidata.org/entity/Q8343724
9010201_9__1__013_-9__1__013__2_09:45:00_1_-__7_9__1__013_,9__1__013_,9010201_9__1__013_,ESTACIÓN-EST.ARANJUEZ,0,9__1__013__1_-_IT_1,1,L1 CIRCULAR (FFCC-Moreras-FFCC),3,par_8_09583,REY-AUDITORIO,40.0323905944824,-3.60051822662354,09:45:00,09:45:00,26,2,http://www.wikidata.org/entity/Q27038964
9010201_9__1__013_-9__1__013__2_09:45:00_1_-__7_9__1__013_,9__1__013_,9010201_9__1__013_,ESTACIÓN-EST.ARANJUEZ,0,9__1__013__1_-_IT_1,1,L1 CIRCULAR (FFCC-Moreras-FFCC),3,par_8_16754,GOBERNADOR-ALMÍBAR,40.0324363708496,-3.60239410400391,09:45:00,09:45:00,27,2,http://www.wikidata.org/entity/Q109946504
9010201_9__1__013_-9__1__013__2_09:45:00_1_-__7_9__1__013_,9__1__013_,9010201_9__1__013_,ESTACIÓN-EST.ARANJUEZ,0,9__1__013__1_-_IT_1,1,L1 CIRCULAR (FFCC-Moreras-FFCC),3,par_8_09571,GOBERNADOR-MERCADO DE ABASTOS,40.0326385498047,-3.60506820678711,09:45:00,09:45:00,28,2,http://www.wikidata.org/entity/Q6010514
9010201_9__1__013_-9__1__013__2_09:45:00_1_-__7_9__1__013_,9__1__013_,9010201_9__1__013_,ESTACIÓN-EST.ARANJUEZ,0,9__1__013__1_-_IT_1,1,L1 CIRCULAR (FFCC-Moreras-FFCC),3,par_8_09573,GOBERNADOR-VALERAS,40.032772064209,-3.60856199264526,09:45:00,09:45:00,29,2,http://www.wikidata.org/entity/Q111388619
9010201_9__1__013_-9__1__013__2_09:45:00_1_-__7_9__1__013_,9__1__013_,9010201_9__1__013_,ESTACIÓN-EST.ARANJUEZ,0,9__1__013__1_-_IT_1,1,L1 CIRCULAR (FFCC-Moreras-FFCC),3,par_8_21328,VALERAS-SAN ANTONIO,40.0337829589844,-3.60854744911194,09:45:00,09:45:00,30,0,http://www.wikidata.org/entity/Q111388619
9010201_9__1__013_-9__1__013__2_09:45:00_1_-__7_9__1__013_,9__1__013_,9010201_9__1__013_,ESTACIÓN-EST.ARANJUEZ,0,9__1__013__1_-_IT_1,1,L1 CIRCULAR (FFCC-Moreras-FFCC),3,par_8_09568,ESTACIÓN-EST.ARANJUEZ,40.0345268249512,-3.61783719062805,09:45:00,09:45:00,31,2,http://www.wikidata.org/entity/Q3394535
9010201_9__1__013_-9__1__013__2_10:45:00_1_-__9_9__1__013_,9__1__013_,9010201_9__1__013_,ESTACIÓN-EST.ARANJUEZ,0,9__1__013__1_-_IT_1,1,L1 CIRCULAR (FFCC-Moreras-FFCC),3,par_8_09568,ESTACIÓN-EST.ARANJUEZ,40.0345268249512,-3.61783719062805,10:45:00,10:45:00,0,2,http://www.wikidata.org/entity/Q3394535
9010201_9__1__013_-9__1__013__2_10:45:00_1_-__9_9__1__013_,9__1__013_,9010201_9__1__013_,ESTACIÓN-EST.ARANJUEZ,0,9__1__013__1_-_IT_1,1,L1 CIRCULAR (FFCC-Moreras-FFCC),3,par_8_21327,VALERAS-SAN ANTONIO,40.0337181091309,-3.60868763923645,10:45:00,10:45:00,1,0,http://www.wikidata.org/entity/Q111388619
9010201_9__1__013_-9__1__013__2_10:45:00_1_-__9_9__1__013_,9__1__013_,9010201_9__1__013_,ESTACIÓN-EST.ARANJUEZ,0,9__1__013__1_-_IT_1,1,L1 CIRCULAR (FFCC-Moreras-FFCC),3,par_8_09572,ABASTOS-FLORIDA,40.0320510864258,-3.60703206062317,10:45:00,10:45:00,2,2,http://www.wikidata.org/entity/Q109946281
9010201_9__1__013_-9__1__013__2_10:45:00_1_-__9_9__1__013_,9__1__013_,9010201_9__1__013_,ESTACIÓN-EST.ARANJUEZ,0,9__1__013__1_-_IT_1,1,L1 CIRCULAR (FFCC-Moreras-FFCC),3,par_8_09576,ABASTOS-AYUNTAMIENTO,40.0319328308105,-3.60386633872986,10:45:00,10:45:00,3,2,http://www.wikidata.org/entity/Q126830041
9010201_9__1__013_-9__1__013__2_10:45:00_1_-__9_9__1__013_,9__1__013_,9010201_9__1__013_,ESTACIÓN-EST.ARANJUEZ,0,9__1__013__1_-_IT_1,1,L1 CIRCULAR (FFCC-Moreras-FFCC),3,par_8_09640,ABASTOS-CONCHA,40.0317115783691,-3.60102796554565,10:45:00,10:45:00,4,2,http://www.wikidata.org/entity/Q42200530
9010201_9__1__013_-9__1__013__2_10:45:00_1_-__9_9__1__013_,9__1__013_,9010201_9__1__013_,ESTACIÓN-EST.ARANJUEZ,0,9__1__013__1_-_IT_1,1,L1 CIRCULAR (FFCC-Moreras-FFCC),3,par_8_09584,FOSO-GOBERNADOR,40.0323944091797,-3.59809231758118,10:45:00,10:45:00,5,2,http://www.wikidata.org/entity/Q27038964
9010201_9__1__013_-9__1__013__2_10:45:00_1_-__9_9__1__013_,9__1__013_,9010201_9__1__013_,ESTACIÓN-EST.ARANJUEZ,0,9__1__013__1_-_IT_1,1,L1 CIRCULAR (FFCC-Moreras-FFCC),3,par_8_09585,FOSO-INFANTAS,40.0333786010742,-3.59798359870911,10:45:00,10:45:00,6,2,http://www.wikidata.org/entity/Q8343724
9010201_9__1__013_-9__1__013__2_10:45:00_1_-__9_9__1__013_,9__1__013_,9010201_9__1__013_,ESTACIÓN-EST.ARANJUEZ,0,9__1__013__1_-_IT_1,1,L1 CIRCULAR (FFCC-Moreras-FFCC),3,par_8_09590,MORERAS-LA BARRACA DE FEDERICO GªLORCA,40.0354804992676,-3.59678292274475,10:45:00,10:45:00,7,2,http://www.wikidata.org/entity/Q5909173
9010201_9__1__013_-9__1__013__2_10:45:00_1_-__9_9__1__013_,9__1__013_,9010201_9__1__013_,ESTACIÓN-EST.ARANJUEZ,0,9__1__013__1_-_IT_1,1,L1 CIRCULAR (FFCC-Moreras-FFCC),3,par_8_09592,MORERAS-ANCHA,40.0353317260742,-3.59467196464539,10:45:00,10:45:00,8,2,http://www.wikidata.org/entity/Q85696104
9010201_9__1__013_-9__1__013__2_10:45:00_1_-__9_9__1__013_,9__1__013_,9010201_9__1__013_,ESTACIÓN-EST.ARANJUEZ,0,9__1__013__1_-_IT_1,1,L1 CIRCULAR (FFCC-Moreras-FFCC),3,par_8_09593,MORERAS-PRIMERO DE MAYO,40.035213470459,-3.59281897544861,10:45:00,10:45:00,9,2,http://www.wikidata.org/entity/Q85696104
9010201_9__1__013_-9__1__013__2_10:45:00_1_-__9_9__1__013_,9__1__013_,9010201_9__1__013_,ESTACIÓN-EST.ARANJUEZ,0,9__1__013__1_-_IT_1,1,L1 CIRCULAR (FFCC-Moreras-FFCC),3,par_8_17126,PRIMERO DE MAYO-POLIDEPORTIVO,40.0340423583984,-3.59273838996887,10:45:00,10:45:00,10,2,http://www.wikidata.org/entity/Q85696104
9010201_9__1__013_-9__1__013__2_10:45:00_1_-__9_9__1__013_,9__1__013_,9010201_9__1__013_,ESTACIÓN-EST.ARANJUEZ,0,9__1__013__1_-_IT_1,1,L1 CIRCULAR (FFCC-Moreras-FFCC),3,par_8_09577,GTA.NUEVO ARANJUEZ-CUARTELES,40.0324363708496,-3.5931932926178,10:45:00,10:45:00,11,2,http://www.wikidata.org/entity/Q24024570
9010201_9__1__013_-9__1__013__2_10:45:00_1_-__9_9__1__013_,9__1__013_,9010201_9__1__013_,ESTACIÓN-EST.ARANJUEZ,0,9__1__013__1_-_IT_1,1,L1 CIRCULAR (FFCC-Moreras-FFCC),3,par_8_09597,MORERAS-COLEGIO,40.0349349975586,-3.58926510810852,10:45:00,10:45:00,12,2,http://www.wikidata.org/entity/Q85696104
9010201_9__1__013_-9__1__013__2_10:45:00_1_-__9_9__1__013_,9__1__013_,9010201_9__1__013_,ESTACIÓN-EST.ARANJUEZ,0,9__1__013__1_-_IT_1,1,L1 CIRCULAR (FFCC-Moreras-FFCC),3,par_8_16102,MORERAS-AUGUSTO MORENO,40.0346069335938,-3.584632396698,10:45:00,10:45:00,13,2,http://www.wikidata.org/entity/Q85696104
9010201_9__1__013_-9__1__013__2_10:45:00_1_-__9_9__1__013_,9__1__013_,9010201_9__1__013_,ESTACIÓN-EST.ARANJUEZ,0,9__1__013__1_-_IT_1,1,L1 CIRCULAR (FFCC-Moreras-FFCC),3,par_8_20631,CARAMILLAR-NORIA,40.0358085632324,-3.57899308204651,10:45:00,10:45:00,14,0,http://www.wikidata.org/entity/Q5755509
9010201_9__1__013_-9__1__013__2_10:45:00_1_-__9_9__1__013_,9__1__013_,9010201_9__1__013_,ESTACIÓN-EST.ARANJUEZ,0,9__1__013__1_-_IT_1,1,L1 CIRCULAR (FFCC-Moreras-FFCC),3,par_8_20632,ESTUDIOS CINEMATOGRÁFICOS-MEDIODÍA,40.037899017334,-3.57871770858765,10:45:00,10:45:00,15,0,http://www.wikidata.org/entity/Q5755509
9010201_9__1__013_-9__1__013__2_10:45:00_1_-__9_9__1__013_,9__1__013_,9010201_9__1__013_,ESTACIÓN-EST.ARANJUEZ,0,9__1__013__1_-_IT_1,1,L1 CIRCULAR (FFCC-Moreras-FFCC),3,par_8_20633,CECILIO LÁZARO-VÍCTIMAS DEL TERRORISMO,40.0358238220215,-3.58082175254822,10:45:00,10:45:00,16,0,http://www.wikidata.org/entity/Q5755509
9010201_9__1__013_-9__1__013__2_10:45:00_1_-__9_9__1__013_,9__1__013_,9010201_9__1__013_,ESTACIÓN-EST.ARANJUEZ,0,9__1__013__1_-_IT_1,1,L1 CIRCULAR (FFCC-Moreras-FFCC),3,par_8_16768,MORERAS-JULIO VALDEÓN,40.0347328186035,-3.58466863632202,10:45:00,10:45:00,17,2,http://www.wikidata.org/entity/Q85696104
9010201_9__1__013_-9__1__013__2_10:45:00_1_-__9_9__1__013_,9__1__013_,9010201_9__1__013_,ESTACIÓN-EST.ARANJUEZ,0,9__1__013__1_-_IT_1,1,L1 CIRCULAR (FFCC-Moreras-FFCC),3,par_8_20630,ÁLVAREZ DE QUINDOS-CÁNDIDO LÓPEZ Y MALTA,40.0346527099609,-3.58845376968384,10:45:00,10:45:00,18,0,http://www.wikidata.org/entity/Q85696104
9010201_9__1__013_-9__1__013__2_10:45:00_1_-__9_9__1__013_,9__1__013_,9010201_9__1__013_,ESTACIÓN-EST.ARANJUEZ,0,9__1__013__1_-_IT_1,1,L1 CIRCULAR (FFCC-Moreras-FFCC),3,par_8_20627,ALVAREZ DE QUINDOS-CUARTELES,40.0328063964844,-3.58992648124695,10:45:00,10:45:00,19,0,http://www.wikidata.org/entity/Q85696104
9010201_9__1__013_-9__1__013__2_10:45:00_1_-__9_9__1__013_,9__1__013_,9010201_9__1__013_,ESTACIÓN-EST.ARANJUEZ,0,9__1__013__1_-_IT_1,1,L1 CIRCULAR (FFCC-Moreras-FFCC),3,par_8_16763,GTA.NUEVO ARANJUEZ-PRIMERO DE MAYO,40.0324859619141,-3.59264302253723,10:45:00,10:45:00,20,2,http://www.wikidata.org/entity/Q24024570
9010201_9__1__013_-9__1__013__2_10:45:00_1_-__9_9__1__013_,9__1__013_,9010201_9__1__013_,ESTACIÓN-EST.ARANJUEZ,0,9__1__013__1_-_IT_1,1,L1 CIRCULAR (FFCC-Moreras-FFCC),3,par_8_09602,PRIMERO DE MAYO-POLIDEPORTIVO,40.0340003967285,-3.59256219863892,10:45:00,10:45:00,21,2,http://www.wikidata.org/entity/Q85696104
9010201_9__1__013_-9__1__013__2_10:45:00_1_-__9_9__1__013_,9__1__013_,9010201_9__1__013_,ESTACIÓN-EST.ARANJUEZ,0,9__1__013__1_-_IT_1,1,L1 CIRCULAR (FFCC-Moreras-FFCC),3,par_8_09594,MORERAS-PRIMERO DE MAYO,40.0353126525879,-3.59279632568359,10:45:00,10:45:00,22,2,http://www.wikidata.org/entity/Q85696104
9010201_9__1__013_-9__1__013__2_10:45:00_1_-__9_9__1__013_,9__1__013_,9010201_9__1__013_,ESTACIÓN-EST.ARANJUEZ,0,9__1__013__1_-_IT_1,1,L1 CIRCULAR (FFCC-Moreras-FFCC),3,par_8_09591,MORERAS-ANCHA,40.035457611084,-3.59477853775024,10:45:00,10:45:00,23,2,http://www.wikidata.org/entity/Q5909173
9010201_9__1__013_-9__1__013__2_10:45:00_1_-__9_9__1__013_,9__1__013_,9010201_9__1__013_,ESTACIÓN-EST.ARANJUEZ,0,9__1__013__1_-_IT_1,1,L1 CIRCULAR (FFCC-Moreras-FFCC),3,par_8_09588,PRÍNCIPE-IGLESIA,40.0357513427734,-3.59848499298096,10:45:00,10:45:00,24,2,http://www.wikidata.org/entity/Q135485669
9010201_9__1__013_-9__1__013__2_10:45:00_1_-__9_9__1__013_,9__1__013_,9010201_9__1__013_,ESTACIÓN-EST.ARANJUEZ,0,9__1__013__1_-_IT_1,1,L1 CIRCULAR (FFCC-Moreras-FFCC),3,par_8_19407,INFANTAS-CAP.ANGOSTO GÓMEZ CASTRILLÓN,40.0348091125488,-3.60132479667664,10:45:00,10:45:00,25,0,http://www.wikidata.org/entity/Q8343724
9010201_9__1__013_-9__1__013__2_10:45:00_1_-__9_9__1__013_,9__1__013_,9010201_9__1__013_,ESTACIÓN-EST.ARANJUEZ,0,9__1__013__1_-_IT_1,1,L1 CIRCULAR (FFCC-Moreras-FFCC),3,par_8_09583,REY-AUDITORIO,40.0323905944824,-3.60051822662354,10:45:00,10:45:00,26,2,http://www.wikidata.org/entity/Q27038964
9010201_9__1__013_-9__1__013__2_10:45:00_1_-__9_9__1__013_,9__1__013_,9010201_9__1__013_,ESTACIÓN-EST.ARANJUEZ,0,9__1__013__1_-_IT_1,1,L1 CIRCULAR (FFCC-Moreras-FFCC),3,par_8_16754,GOBERNADOR-ALMÍBAR,40.0324363708496,-3.60239410400391,10:45:00,10:45:00,27,2,http://www.wikidata.org/entity/Q109946504
9010201_9__1__013_-9__1__013__2_10:45:00_1_-__9_9__1__013_,9__1__013_,9010201_9__1__013_,ESTACIÓN-EST.ARANJUEZ,0,9__1__013__1_-_IT_1,1,L1 CIRCULAR (FFCC-Moreras-FFCC),3,par_8_09571,GOBERNADOR-MERCADO DE ABASTOS,40.0326385498047,-3.60506820678711,10:45:00,10:45:00,28,2,http://www.wikidata.org/entity/Q6010514
9010201_9__1__013_-9__1__013__2_10:45:00_1_-__9_9__1__013_,9__1__013_,9010201_9__1__013_,ESTACIÓN-EST.ARANJUEZ,0,9__1__013__1_-_IT_1,1,L1 CIRCULAR (FFCC-Moreras-FFCC),3,par_8_09573,GOBERNADOR-VALERAS,40.032772064209,-3.60856199264526,10:45:00,10:45:00,29,2,http://www.wikidata.org/entity/Q111388619
9010201_9__1__013_-9__1__013__2_10:45:00_1_-__9_9__1__013_,9__1__013_,9010201_9__1__013_,ESTACIÓN-EST.ARANJUEZ,0,9__1__013__1_-_IT_1,1,L1 CIRCULAR (FFCC-Moreras-FFCC),3,par_8_21328,VALERAS-SAN ANTONIO,40.0337829589844,-3.60854744911194,10:45:00,10:45:00,30,0,http://www.wikidata.org/entity/Q111388619
9010201_9__1__013_-9__1__013__2_10:45:00_1_-__9_9__1__013_,9__1__013_,9010201_9__1__013_,ESTACIÓN-EST.ARANJUEZ,0,9__1__013__1_-_IT_1,1,L1 CIRCULAR (FFCC-Moreras-FFCC),3,par_8_09568,ESTACIÓN-EST.ARANJUEZ,40.0345268249512,-3.61783719062805,10:45:00,10:45:00,31,2,http://www.wikidata.org/entity/Q3394535
9010201_9__1__013_-9__1__013__2_11:45:00_1_-__11_9__1__013_,9__1__013_,9010201_9__1__013_,ESTACIÓN-EST.ARANJUEZ,0,9__1__013__1_-_IT_1,1,L1 CIRCULAR (FFCC-Moreras-FFCC),3,par_8_09568,ESTACIÓN-EST.ARANJUEZ,40.0345268249512,-3.61783719062805,11:45:00,11:45:00,0,2,http://www.wikidata.org/entity/Q3394535
9010201_9__1__013_-9__1__013__2_11:45:00_1_-__11_9__1__013_,9__1__013_,9010201_9__1__013_,ESTACIÓN-EST.ARANJUEZ,0,9__1__013__1_-_IT_1,1,L1 CIRCULAR (FFCC-Moreras-FFCC),3,par_8_21327,VALERAS-SAN ANTONIO,40.0337181091309,-3.60868763923645,11:45:00,11:45:00,1,0,http://www.wikidata.org/entity/Q111388619
9010201_9__1__013_-9__1__013__2_11:45:00_1_-__11_9__1__013_,9__1__013_,9010201_9__1__013_,ESTACIÓN-EST.ARANJUEZ,0,9__1__013__1_-_IT_1,1,L1 CIRCULAR (FFCC-Moreras-FFCC),3,par_8_09572,ABASTOS-FLORIDA,40.0320510864258,-3.60703206062317,11:45:00,11:45:00,2,2,http://www.wikidata.org/entity/Q109946281
9010201_9__1__013_-9__1__013__2_11:45:00_1_-__11_9__1__013_,9__1__013_,9010201_9__1__013_,ESTACIÓN-EST.ARANJUEZ,0,9__1__013__1_-_IT_1,1,L1 CIRCULAR (FFCC-Moreras-FFCC),3,par_8_09576,ABASTOS-AYUNTAMIENTO,40.0319328308105,-3.60386633872986,11:45:00,11:45:00,3,2,http://www.wikidata.org/entity/Q126830041
9010201_9__1__013_-9__1__013__2_11:45:00_1_-__11_9__1__013_,9__1__013_,9010201_9__1__013_,ESTACIÓN-EST.ARANJUEZ,0,9__1__013__1_-_IT_1,1,L1 CIRCULAR (FFCC-Moreras-FFCC),3,par_8_09640,ABASTOS-CONCHA,40.0317115783691,-3.60102796554565,11:45:00,11:45:00,4,2,http://www.wikidata.org/entity/Q42200530
9010201_9__1__013_-9__1__013__2_11:45:00_1_-__11_9__1__013_,9__1__013_,9010201_9__1__013_,ESTACIÓN-EST.ARANJUEZ,0,9__1__013__1_-_IT_1,1,L1 CIRCULAR (FFCC-Moreras-FFCC),3,par_8_09584,FOSO-GOBERNADOR,40.0323944091797,-3.59809231758118,11:45:00,11:45:00,5,2,http://www.wikidata.org/entity/Q27038964
9010201_9__1__013_-9__1__013__2_11:45:00_1_-__11_9__1__013_,9__1__013_,9010201_9__1__013_,ESTACIÓN-EST.ARANJUEZ,0,9__1__013__1_-_IT_1,1,L1 CIRCULAR (FFCC-Moreras-FFCC),3,par_8_09585,FOSO-INFANTAS,40.0333786010742,-3.59798359870911,11:45:00,11:45:00,6,2,http://www.wikidata.org/entity/Q8343724
9010201_9__1__013_-9__1__013__2_11:45:00_1_-__11_9__1__013_,9__1__013_,9010201_9__1__013_,ESTACIÓN-EST.ARANJUEZ,0,9__1__013__1_-_IT_1,1,L1 CIRCULAR (FFCC-Moreras-FFCC),3,par_8_09590,MORERAS-LA BARRACA DE FEDERICO GªLORCA,40.0354804992676,-3.59678292274475,11:45:00,11:45:00,7,2,http://www.wikidata.org/entity/Q5909173
9010201_9__1__013_-9__1__013__2_11:45:00_1_-__11_9__1__013_,9__1__013_,9010201_9__1__013_,ESTACIÓN-EST.ARANJUEZ,0,9__1__013__1_-_IT_1,1,L1 CIRCULAR (FFCC-Moreras-FFCC),3,par_8_09592,MORERAS-ANCHA,40.0353317260742,-3.59467196464539,11:45:00,11:45:00,8,2,http://www.wikidata.org/entity/Q85696104
9010201_9__1__013_-9__1__013__2_11:45:00_1_-__11_9__1__013_,9__1__013_,9010201_9__1__013_,ESTACIÓN-EST.ARANJUEZ,0,9__1__013__1_-_IT_1,1,L1 CIRCULAR (FFCC-Moreras-FFCC),3,par_8_09593,MORERAS-PRIMERO DE MAYO,40.035213470459,-3.59281897544861,11:45:00,11:45:00,9,2,http://www.wikidata.org/entity/Q85696104
9010201_9__1__013_-9__1__013__2_11:45:00_1_-__11_9__1__013_,9__1__013_,9010201_9__1__013_,ESTACIÓN-EST.ARANJUEZ,0,9__1__013__1_-_IT_1,1,L1 CIRCULAR (FFCC-Moreras-FFCC),3,par_8_17126,PRIMERO DE MAYO-POLIDEPORTIVO,40.0340423583984,-3.59273838996887,11:45:00,11:45:00,10,2,http://www.wikidata.org/entity/Q85696104
9010201_9__1__013_-9__1__013__2_11:45:00_1_-__11_9__1__013_,9__1__013_,9010201_9__1__013_,ESTACIÓN-EST.ARANJUEZ,0,9__1__013__1_-_IT_1,1,L1 CIRCULAR (FFCC-Moreras-FFCC),3,par_8_09577,GTA.NUEVO ARANJUEZ-CUARTELES,40.0324363708496,-3.5931932926178,11:45:00,11:45:00,11,2,http://www.wikidata.org/entity/Q24024570
9010201_9__1__013_-9__1__013__2_11:45:00_1_-__11_9__1__013_,9__1__013_,9010201_9__1__013_,ESTACIÓN-EST.ARANJUEZ,0,9__1__013__1_-_IT_1,1,L1 CIRCULAR (FFCC-Moreras-FFCC),3,par_8_09597,MORERAS-COLEGIO,40.0349349975586,-3.58926510810852,11:45:00,11:45:00,12,2,http://www.wikidata.org/entity/Q85696104
9010201_9__1__013_-9__1__013__2_11:45:00_1_-__11_9__1__013_,9__1__013_,9010201_9__1__013_,ESTACIÓN-EST.ARANJUEZ,0,9__1__013__1_-_IT_1,1,L1 CIRCULAR (FFCC-Moreras-FFCC),3,par_8_16102,MORERAS-AUGUSTO MORENO,40.0346069335938,-3.584632396698,11:45:00,11:45:00,13,2,http://www.wikidata.org/entity/Q85696104
9010201_9__1__013_-9__1__013__2_11:45:00_1_-__11_9__1__013_,9__1__013_,9010201_9__1__013_,ESTACIÓN-EST.ARANJUEZ,0,9__1__013__1_-_IT_1,1,L1 CIRCULAR (FFCC-Moreras-FFCC),3,par_8_20631,CARAMILLAR-NORIA,40.0358085632324,-3.57899308204651,11:45:00,11:45:00,14,0,http://www.wikidata.org/entity/Q5755509
9010201_9__1__013_-9__1__013__2_11:45:00_1_-__11_9__1__013_,9__1__013_,9010201_9__1__013_,ESTACIÓN-EST.ARANJUEZ,0,9__1__013__1_-_IT_1,1,L1 CIRCULAR (FFCC-Moreras-FFCC),3,par_8_20632,ESTUDIOS CINEMATOGRÁFICOS-MEDIODÍA,40.037899017334,-3.57871770858765,11:45:00,11:45:00,15,0,http://www.wikidata.org/entity/Q5755509
9010201_9__1__013_-9__1__013__2_11:45:00_1_-__11_9__1__013_,9__1__013_,9010201_9__1__013_,ESTACIÓN-EST.ARANJUEZ,0,9__1__013__1_-_IT_1,1,L1 CIRCULAR (FFCC-Moreras-FFCC),3,par_8_20633,CECILIO LÁZARO-VÍCTIMAS DEL TERRORISMO,40.0358238220215,-3.58082175254822,11:45:00,11:45:00,16,0,http://www.wikidata.org/entity/Q5755509
9010201_9__1__013_-9__1__013__2_11:45:00_1_-__11_9__1__013_,9__1__013_,9010201_9__1__013_,ESTACIÓN-EST.ARANJUEZ,0,9__1__013__1_-_IT_1,1,L1 CIRCULAR (FFCC-Moreras-FFCC),3,par_8_16768,MORERAS-JULIO VALDEÓN,40.0347328186035,-3.58466863632202,11:45:00,11:45:00,17,2,http://www.wikidata.org/entity/Q85696104
9010201_9__1__013_-9__1__013__2_11:45:00_1_-__11_9__1__013_,9__1__013_,9010201_9__1__013_,ESTACIÓN-EST.ARANJUEZ,0,9__1__013__1_-_IT_1,1,L1 CIRCULAR (FFCC-Moreras-FFCC),3,par_8_20630,ÁLVAREZ DE QUINDOS-CÁNDIDO LÓPEZ Y MALTA,40.0346527099609,-3.58845376968384,11:45:00,11:45:00,18,0,http://www.wikidata.org/entity/Q85696104
9010201_9__1__013_-9__1__013__2_11:45:00_1_-__11_9__1__013_,9__1__013_,9010201_9__1__013_,ESTACIÓN-EST.ARANJUEZ,0,9__1__013__1_-_IT_1,1,L1 CIRCULAR (FFCC-Moreras-FFCC),3,par_8_20627,ALVAREZ DE QUINDOS-CUARTELES,40.0328063964844,-3.58992648124695,11:45:00,11:45:00,19,0,http://www.wikidata.org/entity/Q85696104
9010201_9__1__013_-9__1__013__2_11:45:00_1_-__11_9__1__013_,9__1__013_,9010201_9__1__013_,ESTACIÓN-EST.ARANJUEZ,0,9__1__013__1_-_IT_1,1,L1 CIRCULAR (FFCC-Moreras-FFCC),3,par_8_16763,GTA.NUEVO ARANJUEZ-PRIMERO DE MAYO,40.0324859619141,-3.59264302253723,11:45:00,11:45:00,20,2,http://www.wikidata.org/entity/Q24024570
9010201_9__1__013_-9__1__013__2_11:45:00_1_-__11_9__1__013_,9__1__013_,9010201_9__1__013_,ESTACIÓN-EST.ARANJUEZ,0,9__1__013__1_-_IT_1,1,L1 CIRCULAR (FFCC-Moreras-FFCC),3,par_8_09602,PRIMERO DE MAYO-POLIDEPORTIVO,40.0340003967285,-3.59256219863892,11:45:00,11:45:00,21,2,http://www.wikidata.org/entity/Q85696104
9010201_9__1__013_-9__1__013__2_11:45:00_1_-__11_9__1__013_,9__1__013_,9010201_9__1__013_,ESTACIÓN-EST.ARANJUEZ,0,9__1__013__1_-_IT_1,1,L1 CIRCULAR (FFCC-Moreras-FFCC),3,par_8_09594,MORERAS-PRIMERO DE MAYO,40.0353126525879,-3.59279632568359,11:45:00,11:45:00,22,2,http://www.wikidata.org/entity/Q85696104
9010201_9__1__013_-9__1__013__2_11:45:00_1_-__11_9__1__013_,9__1__013_,9010201_9__1__013_,ESTACIÓN-EST.ARANJUEZ,0,9__1__013__1_-_IT_1,1,L1 CIRCULAR (FFCC-Moreras-FFCC),3,par_8_09591,MORERAS-ANCHA,40.035457611084,-3.59477853775024,11:45:00,11:45:00,23,2,http://www.wikidata.org/entity/Q5909173
9010201_9__1__013_-9__1__013__2_11:45:00_1_-__11_9__1__013_,9__1__013_,9010201_9__1__013_,ESTACIÓN-EST.ARANJUEZ,0,9__1__013__1_-_IT_1,1,L1 CIRCULAR (FFCC-Moreras-FFCC),3,par_8_09588,PRÍNCIPE-IGLESIA,40.0357513427734,-3.59848499298096,11:45:00,11:45:00,24,2,http://www.wikidata.org/entity/Q135485669
9010201_9__1__013_-9__1__013__2_11:45:00_1_-__11_9__1__013_,9__1__013_,9010201_9__1__013_,ESTACIÓN-EST.ARANJUEZ,0,9__1__013__1_-_IT_1,1,L1 CIRCULAR (FFCC-Moreras-FFCC),3,par_8_19407,INFANTAS-CAP.ANGOSTO GÓMEZ CASTRILLÓN,40.0348091125488,-3.60132479667664,11:45:00,11:45:00,25,0,http://www.wikidata.org/entity/Q8343724
9010201_9__1__013_-9__1__013__2_11:45:00_1_-__11_9__1__013_,9__1__013_,9010201_9__1__013_,ESTACIÓN-EST.ARANJUEZ,0,9__1__013__1_-_IT_1,1,L1 CIRCULAR (FFCC-Moreras-FFCC),3,par_8_09583,REY-AUDITORIO,40.0323905944824,-3.60051822662354,11:45:00,11:45:00,26,2,http://www.wikidata.org/entity/Q27038964
9010201_9__1__013_-9__1__013__2_11:45:00_1_-__11_9__1__013_,9__1__013_,9010201_9__1__013_,ESTACIÓN-EST.ARANJUEZ,0,9__1__013__1_-_IT_1,1,L1 CIRCULAR (FFCC-Moreras-FFCC),3,par_8_16754,GOBERNADOR-ALMÍBAR,40.0324363708496,-3.60239410400391,11:45:00,11:45:00,27,2,http://www.wikidata.org/entity/Q109946504
9010201_9__1__013_-9__1__013__2_11:45:00_1_-__11_9__1__013_,9__1__013_,9010201_9__1__013_,ESTACIÓN-EST.ARANJUEZ,0,9__1__013__1_-_IT_1,1,L1 CIRCULAR (FFCC-Moreras-FFCC),3,par_8_09571,GOBERNADOR-MERCADO DE ABASTOS,40.0326385498047,-3.60506820678711,11:45:00,11:45:00,28,2,http://www.wikidata.org/entity/Q6010514
9010201_9__1__013_-9__1__013__2_11:45:00_1_-__11_9__1__013_,9__1__013_,9010201_9__1__013_,ESTACIÓN-EST.ARANJUEZ,0,9__1__013__1_-_IT_1,1,L1 CIRCULAR (FFCC-Moreras-FFCC),3,par_8_09573,GOBERNADOR-VALERAS,40.032772064209,-3.60856199264526,11:45:00,11:45:00,29,2,http://www.wikidata.org/entity/Q111388619
9010201_9__1__013_-9__1__013__2_11:45:00_1_-__11_9__1__013_,9__1__013_,9010201_9__1__013_,ESTACIÓN-EST.ARANJUEZ,0,9__1__013__1_-_IT_1,1,L1 CIRCULAR (FFCC-Moreras-FFCC),3,par_8_21328,VALERAS-SAN ANTONIO,40.0337829589844,-3.60854744911194,11:45:00,11:45:00,30,0,http://www.wikidata.org/entity/Q111388619
9010201_9__1__013_-9__1__013__2_11:45:00_1_-__11_9__1__013_,9__1__013_,9010201_9__1__013_,ESTACIÓN-EST.ARANJUEZ,0,9__1__013__1_-_IT_1,1,L1 CIRCULAR (FFCC-Moreras-FFCC),3,par_8_09568,ESTACIÓN-EST.ARANJUEZ,40.0345268249512,-3.61783719062805,11:45:00,11:45:00,31,2,http://www.wikidata.org/entity/Q3394535
9010201_9__1__013_-9__1__013__2_12:45:00_1_-__13_9__1__013_,9__1__013_,9010201_9__1__013_,ESTACIÓN-EST.ARANJUEZ,0,9__1__013__1_-_IT_1,1,L1 CIRCULAR (FFCC-Moreras-FFCC),3,par_8_09568,ESTACIÓN-EST.ARANJUEZ,40.0345268249512,-3.61783719062805,12:45:00,12:45:00,0,2,http://www.wikidata.org/entity/Q3394535
9010201_9__1__013_-9__1__013__2_12:45:00_1_-__13_9__1__013_,9__1__013_,9010201_9__1__013_,ESTACIÓN-EST.ARANJUEZ,0,9__1__013__1_-_IT_1,1,L1 CIRCULAR (FFCC-Moreras-FFCC),3,par_8_21327,VALERAS-SAN ANTONIO,40.0337181091309,-3.60868763923645,12:45:00,12:45:00,1,0,http://www.wikidata.org/entity/Q111388619
9010201_9__1__013_-9__1__013__2_12:45:00_1_-__13_9__1__013_,9__1__013_,9010201_9__1__013_,ESTACIÓN-EST.ARANJUEZ,0,9__1__013__1_-_IT_1,1,L1 CIRCULAR (FFCC-Moreras-FFCC),3,par_8_09572,ABASTOS-FLORIDA,40.0320510864258,-3.60703206062317,12:45:00,12:45:00,2,2,http://www.wikidata.org/entity/Q109946281
9010201_9__1__013_-9__1__013__2_12:45:00_1_-__13_9__1__013_,9__1__013_,9010201_9__1__013_,ESTACIÓN-EST.ARANJUEZ,0,9__1__013__1_-_IT_1,1,L1 CIRCULAR (FFCC-Moreras-FFCC),3,par_8_09576,ABASTOS-AYUNTAMIENTO,40.0319328308105,-3.60386633872986,12:45:00,12:45:00,3,2,http://www.wikidata.org/entity/Q126830041
9010201_9__1__013_-9__1__013__2_12:45:00_1_-__13_9__1__013_,9__1__013_,9010201_9__1__013_,ESTACIÓN-EST.ARANJUEZ,0,9__1__013__1_-_IT_1,1,L1 CIRCULAR (FFCC-Moreras-FFCC),3,par_8_09640,ABASTOS-CONCHA,40.0317115783691,-3.60102796554565,12:45:00,12:45:00,4,2,http://www.wikidata.org/entity/Q42200530
9010201_9__1__013_-9__1__013__2_12:45:00_1_-__13_9__1__013_,9__1__013_,9010201_9__1__013_,ESTACIÓN-EST.ARANJUEZ,0,9__1__013__1_-_IT_1,1,L1 CIRCULAR (FFCC-Moreras-FFCC),3,par_8_09584,FOSO-GOBERNADOR,40.0323944091797,-3.59809231758118,12:45:00,12:45:00,5,2,http://www.wikidata.org/entity/Q27038964
9010201_9__1__013_-9__1__013__2_12:45:00_1_-__13_9__1__013_,9__1__013_,9010201_9__1__013_,ESTACIÓN-EST.ARANJUEZ,0,9__1__013__1_-_IT_1,1,L1 CIRCULAR (FFCC-Moreras-FFCC),3,par_8_09585,FOSO-INFANTAS,40.0333786010742,-3.59798359870911,12:45:00,12:45:00,6,2,http://www.wikidata.org/entity/Q8343724
9010201_9__1__013_-9__1__013__2_12:45:00_1_-__13_9__1__013_,9__1__013_,9010201_9__1__013_,ESTACIÓN-EST.ARANJUEZ,0,9__1__013__1_-_IT_1,1,L1 CIRCULAR (FFCC-Moreras-FFCC),3,par_8_09590,MORERAS-LA BARRACA DE FEDERICO GªLORCA,40.0354804992676,-3.59678292274475,12:45:00,12:45:00,7,2,http://www.wikidata.org/entity/Q5909173
9010201_9__1__013_-9__1__013__2_12:45:00_1_-__13_9__1__013_,9__1__013_,9010201_9__1__013_,ESTACIÓN-EST.ARANJUEZ,0,9__1__013__1_-_IT_1,1,L1 CIRCULAR (FFCC-Moreras-FFCC),3,par_8_09592,MORERAS-ANCHA,40.0353317260742,-3.59467196464539,12:45:00,12:45:00,8,2,http://www.wikidata.org/entity/Q85696104
9010201_9__1__013_-9__1__013__2_12:45:00_1_-__13_9__1__013_,9__1__013_,9010201_9__1__013_,ESTACIÓN-EST.ARANJUEZ,0,9__1__013__1_-_IT_1,1,L1 CIRCULAR (FFCC-Moreras-FFCC),3,par_8_09593,MORERAS-PRIMERO DE MAYO,40.035213470459,-3.59281897544861,12:45:00,12:45:00,9,2,http://www.wikidata.org/entity/Q85696104
9010201_9__1__013_-9__1__013__2_12:45:00_1_-__13_9__1__013_,9__1__013_,9010201_9__1__013_,ESTACIÓN-EST.ARANJUEZ,0,9__1__013__1_-_IT_1,1,L1 CIRCULAR (FFCC-Moreras-FFCC),3,par_8_17126,PRIMERO DE MAYO-POLIDEPORTIVO,40.0340423583984,-3.59273838996887,12:45:00,12:45:00,10,2,http://www.wikidata.org/entity/Q85696104
9010201_9__1__013_-9__1__013__2_12:45:00_1_-__13_9__1__013_,9__1__013_,9010201_9__1__013_,ESTACIÓN-EST.ARANJUEZ,0,9__1__013__1_-_IT_1,1,L1 CIRCULAR (FFCC-Moreras-FFCC),3,par_8_09577,GTA.NUEVO ARANJUEZ-CUARTELES,40.0324363708496,-3.5931932926178,12:45:00,12:45:00,11,2,http://www.wikidata.org/entity/Q24024570
9010201_9__1__013_-9__1__013__2_12:45:00_1_-__13_9__1__013_,9__1__013_,9010201_9__1__013_,ESTACIÓN-EST.ARANJUEZ,0,9__1__013__1_-_IT_1,1,L1 CIRCULAR (FFCC-Moreras-FFCC),3,par_8_09597,MORERAS-COLEGIO,40.0349349975586,-3.58926510810852,12:45:00,12:45:00,12,2,http://www.wikidata.org/entity/Q85696104
9010201_9__1__013_-9__1__013__2_12:45:00_1_-__13_9__1__013_,9__1__013_,9010201_9__1__013_,ESTACIÓN-EST.ARANJUEZ,0,9__1__013__1_-_IT_1,1,L1 CIRCULAR (FFCC-Moreras-FFCC),3,par_8_16102,MORERAS-AUGUSTO MORENO,40.0346069335938,-3.584632396698,12:45:00,12:45:00,13,2,http://www.wikidata.org/entity/Q85696104
9010201_9__1__013_-9__1__013__2_12:45:00_1_-__13_9__1__013_,9__1__013_,9010201_9__1__013_,ESTACIÓN-EST.ARANJUEZ,0,9__1__013__1_-_IT_1,1,L1 CIRCULAR (FFCC-Moreras-FFCC),3,par_8_20631,CARAMILLAR-NORIA,40.0358085632324,-3.57899308204651,12:45:00,12:45:00,14,0,http://www.wikidata.org/entity/Q5755509
9010201_9__1__013_-9__1__013__2_12:45:00_1_-__13_9__1__013_,9__1__013_,9010201_9__1__013_,ESTACIÓN-EST.ARANJUEZ,0,9__1__013__1_-_IT_1,1,L1 CIRCULAR (FFCC-Moreras-FFCC),3,par_8_20632,ESTUDIOS CINEMATOGRÁFICOS-MEDIODÍA,40.037899017334,-3.57871770858765,12:45:00,12:45:00,15,0,http://www.wikidata.org/entity/Q5755509
9010201_9__1__013_-9__1__013__2_12:45:00_1_-__13_9__1__013_,9__1__013_,9010201_9__1__013_,ESTACIÓN-EST.ARANJUEZ,0,9__1__013__1_-_IT_1,1,L1 CIRCULAR (FFCC-Moreras-FFCC),3,par_8_20633,CECILIO LÁZARO-VÍCTIMAS DEL TERRORISMO,40.0358238220215,-3.58082175254822,12:45:00,12:45:00,16,0,http://www.wikidata.org/entity/Q5755509
9010201_9__1__013_-9__1__013__2_12:45:00_1_-__13_9__1__013_,9__1__013_,9010201_9__1__013_,ESTACIÓN-EST.ARANJUEZ,0,9__1__013__1_-_IT_1,1,L1 CIRCULAR (FFCC-Moreras-FFCC),3,par_8_16768,MORERAS-JULIO VALDEÓN,40.0347328186035,-3.58466863632202,12:45:00,12:45:00,17,2,http://www.wikidata.org/entity/Q85696104
9010201_9__1__013_-9__1__013__2_12:45:00_1_-__13_9__1__013_,9__1__013_,9010201_9__1__013_,ESTACIÓN-EST.ARANJUEZ,0,9__1__013__1_-_IT_1,1,L1 CIRCULAR (FFCC-Moreras-FFCC),3,par_8_20630,ÁLVAREZ DE QUINDOS-CÁNDIDO LÓPEZ Y MALTA,40.0346527099609,-3.58845376968384,12:45:00,12:45:00,18,0,http://www.wikidata.org/entity/Q85696104
9010201_9__1__013_-9__1__013__2_12:45:00_1_-__13_9__1__013_,9__1__013_,9010201_9__1__013_,ESTACIÓN-EST.ARANJUEZ,0,9__1__013__1_-_IT_1,1,L1 CIRCULAR (FFCC-Moreras-FFCC),3,par_8_20627,ALVAREZ DE QUINDOS-CUARTELES,40.0328063964844,-3.58992648124695,12:45:00,12:45:00,19,0,http://www.wikidata.org/entity/Q85696104
9010201_9__1__013_-9__1__013__2_12:45:00_1_-__13_9__1__013_,9__1__013_,9010201_9__1__013_,ESTACIÓN-EST.ARANJUEZ,0,9__1__013__1_-_IT_1,1,L1 CIRCULAR (FFCC-Moreras-FFCC),3,par_8_16763,GTA.NUEVO ARANJUEZ-PRIMERO DE MAYO,40.0324859619141,-3.59264302253723,12:45:00,12:45:00,20,2,http://www.wikidata.org/entity/Q24024570
9010201_9__1__013_-9__1__013__2_12:45:00_1_-__13_9__1__013_,9__1__013_,9010201_9__1__013_,ESTACIÓN-EST.ARANJUEZ,0,9__1__013__1_-_IT_1,1,L1 CIRCULAR (FFCC-Moreras-FFCC),3,par_8_09602,PRIMERO DE MAYO-POLIDEPORTIVO,40.0340003967285,-3.59256219863892,12:45:00,12:45:00,21,2,http://www.wikidata.org/entity/Q85696104
9010201_9__1__013_-9__1__013__2_12:45:00_1_-__13_9__1__013_,9__1__013_,9010201_9__1__013_,ESTACIÓN-EST.ARANJUEZ,0,9__1__013__1_-_IT_1,1,L1 CIRCULAR (FFCC-Moreras-FFCC),3,par_8_09594,MORERAS-PRIMERO DE MAYO,40.0353126525879,-3.59279632568359,12:45:00,12:45:00,22,2,http://www.wikidata.org/entity/Q85696104
9010201_9__1__013_-9__1__013__2_12:45:00_1_-__13_9__1__013_,9__1__013_,9010201_9__1__013_,ESTACIÓN-EST.ARANJUEZ,0,9__1__013__1_-_IT_1,1,L1 CIRCULAR (FFCC-Moreras-FFCC),3,par_8_09591,MORERAS-ANCHA,40.035457611084,-3.59477853775024,12:45:00,12:45:00,23,2,http://www.wikidata.org/entity/Q5909173
9010201_9__1__013_-9__1__013__2_12:45:00_1_-__13_9__1__013_,9__1__013_,9010201_9__1__013_,ESTACIÓN-EST.ARANJUEZ,0,9__1__013__1_-_IT_1,1,L1 CIRCULAR (FFCC-Moreras-FFCC),3,par_8_09588,PRÍNCIPE-IGLESIA,40.0357513427734,-3.59848499298096,12:45:00,12:45:00,24,2,http://www.wikidata.org/entity/Q135485669
9010201_9__1__013_-9__1__013__2_12:45:00_1_-__13_9__1__013_,9__1__013_,9010201_9__1__013_,ESTACIÓN-EST.ARANJUEZ,0,9__1__013__1_-_IT_1,1,L1 CIRCULAR (FFCC-Moreras-FFCC),3,par_8_19407,INFANTAS-CAP.ANGOSTO GÓMEZ CASTRILLÓN,40.0348091125488,-3.60132479667664,12:45:00,12:45:00,25,0,http://www.wikidata.org/entity/Q8343724
9010201_9__1__013_-9__1__013__2_12:45:00_1_-__13_9__1__013_,9__1__013_,9010201_9__1__013_,ESTACIÓN-EST.ARANJUEZ,0,9__1__013__1_-_IT_1,1,L1 CIRCULAR (FFCC-Moreras-FFCC),3,par_8_09583,REY-AUDITORIO,40.0323905944824,-3.60051822662354,12:45:00,12:45:00,26,2,http://www.wikidata.org/entity/Q27038964
9010201_9__1__013_-9__1__013__2_12:45:00_1_-__13_9__1__013_,9__1__013_,9010201_9__1__013_,ESTACIÓN-EST.ARANJUEZ,0,9__1__013__1_-_IT_1,1,L1 CIRCULAR (FFCC-Moreras-FFCC),3,par_8_16754,GOBERNADOR-ALMÍBAR,40.0324363708496,-3.60239410400391,12:45:00,12:45:00,27,2,http://www.wikidata.org/entity/Q109946504
9010201_9__1__013_-9__1__013__2_12:45:00_1_-__13_9__1__013_,9__1__013_,9010201_9__1__013_,ESTACIÓN-EST.ARANJUEZ,0,9__1__013__1_-_IT_1,1,L1 CIRCULAR (FFCC-Moreras-FFCC),3,par_8_09571,GOBERNADOR-MERCADO DE ABASTOS,40.0326385498047,-3.60506820678711,12:45:00,12:45:00,28,2,http://www.wikidata.org/entity/Q6010514
9010201_9__1__013_-9__1__013__2_12:45:00_1_-__13_9__1__013_,9__1__013_,9010201_9__1__013_,ESTACIÓN-EST.ARANJUEZ,0,9__1__013__1_-_IT_1,1,L1 CIRCULAR (FFCC-Moreras-FFCC),3,par_8_09573,GOBERNADOR-VALERAS,40.032772064209,-3.60856199264526,12:45:00,12:45:00,29,2,http://www.wikidata.org/entity/Q111388619
9010201_9__1__013_-9__1__013__2_12:45:00_1_-__13_9__1__013_,9__1__013_,9010201_9__1__013_,ESTACIÓN-EST.ARANJUEZ,0,9__1__013__1_-_IT_1,1,L1 CIRCULAR (FFCC-Moreras-FFCC),3,par_8_21328,VALERAS-SAN ANTONIO,40.0337829589844,-3.60854744911194,12:45:00,12:45:00,30,0,http://www.wikidata.org/entity/Q111388619
9010201_9__1__013_-9__1__013__2_12:45:00_1_-__13_9__1__013_,9__1__013_,9010201_9__1__013_,ESTACIÓN-EST.ARANJUEZ,0,9__1__013__1_-_IT_1,1,L1 CIRCULAR (FFCC-Moreras-FFCC),3,par_8_09568,ESTACIÓN-EST.ARANJUEZ,40.0345268249512,-3.61783719062805,12:45:00,12:45:00,31,2,http://www.wikidata.org/entity/Q3394535
9010201_9__1__013_-9__1__013__2_13:45:00_1_-__15_9__1__013_,9__1__013_,9010201_9__1__013_,ESTACIÓN-EST.ARANJUEZ,0,9__1__013__1_-_IT_1,1,L1 CIRCULAR (FFCC-Moreras-FFCC),3,par_8_09568,ESTACIÓN-EST.ARANJUEZ,40.0345268249512,-3.61783719062805,13:45:00,13:45:00,0,2,http://www.wikidata.org/entity/Q3394535
9010201_9__1__013_-9__1__013__2_13:45:00_1_-__15_9__1__013_,9__1__013_,9010201_9__1__013_,ESTACIÓN-EST.ARANJUEZ,0,9__1__013__1_-_IT_1,1,L1 CIRCULAR (FFCC-Moreras-FFCC),3,par_8_21327,VALERAS-SAN ANTONIO,40.0337181091309,-3.60868763923645,13:45:00,13:45:00,1,0,http://www.wikidata.org/entity/Q111388619
9010201_9__1__013_-9__1__013__2_13:45:00_1_-__15_9__1__013_,9__1__013_,9010201_9__1__013_,ESTACIÓN-EST.ARANJUEZ,0,9__1__013__1_-_IT_1,1,L1 CIRCULAR (FFCC-Moreras-FFCC),3,par_8_09572,ABASTOS-FLORIDA,40.0320510864258,-3.60703206062317,13:45:00,13:45:00,2,2,http://www.wikidata.org/entity/Q109946281
9010201_9__1__013_-9__1__013__2_13:45:00_1_-__15_9__1__013_,9__1__013_,9010201_9__1__013_,ESTACIÓN-EST.ARANJUEZ,0,9__1__013__1_-_IT_1,1,L1 CIRCULAR (FFCC-Moreras-FFCC),3,par_8_09576,ABASTOS-AYUNTAMIENTO,40.0319328308105,-3.60386633872986,13:45:00,13:45:00,3,2,http://www.wikidata.org/entity/Q126830041
9010201_9__1__013_-9__1__013__2_13:45:00_1_-__15_9__1__013_,9__1__013_,9010201_9__1__013_,ESTACIÓN-EST.ARANJUEZ,0,9__1__013__1_-_IT_1,1,L1 CIRCULAR (FFCC-Moreras-FFCC),3,par_8_09640,ABASTOS-CONCHA,40.0317115783691,-3.60102796554565,13:45:00,13:45:00,4,2,http://www.wikidata.org/entity/Q42200530
9010201_9__1__013_-9__1__013__2_13:45:00_1_-__15_9__1__013_,9__1__013_,9010201_9__1__013_,ESTACIÓN-EST.ARANJUEZ,0,9__1__013__1_-_IT_1,1,L1 CIRCULAR (FFCC-Moreras-FFCC),3,par_8_09584,FOSO-GOBERNADOR,40.0323944091797,-3.59809231758118,13:45:00,13:45:00,5,2,http://www.wikidata.org/entity/Q27038964
9010201_9__1__013_-9__1__013__2_13:45:00_1_-__15_9__1__013_,9__1__013_,9010201_9__1__013_,ESTACIÓN-EST.ARANJUEZ,0,9__1__013__1_-_IT_1,1,L1 CIRCULAR (FFCC-Moreras-FFCC),3,par_8_09585,FOSO-INFANTAS,40.0333786010742,-3.59798359870911,13:45:00,13:45:00,6,2,http://www.wikidata.org/entity/Q8343724
9010201_9__1__013_-9__1__013__2_13:45:00_1_-__15_9__1__013_,9__1__013_,9010201_9__1__013_,ESTACIÓN-EST.ARANJUEZ,0,9__1__013__1_-_IT_1,1,L1 CIRCULAR (FFCC-Moreras-FFCC),3,par_8_09590,MORERAS-LA BARRACA DE FEDERICO GªLORCA,40.0354804992676,-3.59678292274475,13:45:00,13:45:00,7,2,http://www.wikidata.org/entity/Q5909173
9010201_9__1__013_-9__1__013__2_13:45:00_1_-__15_9__1__013_,9__1__013_,9010201_9__1__013_,ESTACIÓN-EST.ARANJUEZ,0,9__1__013__1_-_IT_1,1,L1 CIRCULAR (FFCC-Moreras-FFCC),3,par_8_09592,MORERAS-ANCHA,40.0353317260742,-3.59467196464539,13:45:00,13:45:00,8,2,http://www.wikidata.org/entity/Q85696104
9010201_9__1__013_-9__1__013__2_13:45:00_1_-__15_9__1__013_,9__1__013_,9010201_9__1__013_,ESTACIÓN-EST.ARANJUEZ,0,9__1__013__1_-_IT_1,1,L1 CIRCULAR (FFCC-Moreras-FFCC),3,par_8_09593,MORERAS-PRIMERO DE MAYO,40.035213470459,-3.59281897544861,13:45:00,13:45:00,9,2,http://www.wikidata.org/entity/Q85696104
9010201_9__1__013_-9__1__013__2_13:45:00_1_-__15_9__1__013_,9__1__013_,9010201_9__1__013_,ESTACIÓN-EST.ARANJUEZ,0,9__1__013__1_-_IT_1,1,L1 CIRCULAR (FFCC-Moreras-FFCC),3,par_8_17126,PRIMERO DE MAYO-POLIDEPORTIVO,40.0340423583984,-3.59273838996887,13:45:00,13:45:00,10,2,http://www.wikidata.org/entity/Q85696104
9010201_9__1__013_-9__1__013__2_13:45:00_1_-__15_9__1__013_,9__1__013_,9010201_9__1__013_,ESTACIÓN-EST.ARANJUEZ,0,9__1__013__1_-_IT_1,1,L1 CIRCULAR (FFCC-Moreras-FFCC),3,par_8_09577,GTA.NUEVO ARANJUEZ-CUARTELES,40.0324363708496,-3.5931932926178,13:45:00,13:45:00,11,2,http://www.wikidata.org/entity/Q24024570
9010201_9__1__013_-9__1__013__2_13:45:00_1_-__15_9__1__013_,9__1__013_,9010201_9__1__013_,ESTACIÓN-EST.ARANJUEZ,0,9__1__013__1_-_IT_1,1,L1 CIRCULAR (FFCC-Moreras-FFCC),3,par_8_09597,MORERAS-COLEGIO,40.0349349975586,-3.58926510810852,13:45:00,13:45:00,12,2,http://www.wikidata.org/entity/Q85696104
9010201_9__1__013_-9__1__013__2_13:45:00_1_-__15_9__1__013_,9__1__013_,9010201_9__1__013_,ESTACIÓN-EST.ARANJUEZ,0,9__1__013__1_-_IT_1,1,L1 CIRCULAR (FFCC-Moreras-FFCC),3,par_8_16102,MORERAS-AUGUSTO MORENO,40.0346069335938,-3.584632396698,13:45:00,13:45:00,13,2,http://www.wikidata.org/entity/Q85696104
9010201_9__1__013_-9__1__013__2_13:45:00_1_-__15_9__1__013_,9__1__013_,9010201_9__1__013_,ESTACIÓN-EST.ARANJUEZ,0,9__1__013__1_-_IT_1,1,L1 CIRCULAR (FFCC-Moreras-FFCC),3,par_8_20631,CARAMILLAR-NORIA,40.0358085632324,-3.57899308204651,13:45:00,13:45:00,14,0,http://www.wikidata.org/entity/Q5755509
9010201_9__1__013_-9__1__013__2_13:45:00_1_-__15_9__1__013_,9__1__013_,9010201_9__1__013_,ESTACIÓN-EST.ARANJUEZ,0,9__1__013__1_-_IT_1,1,L1 CIRCULAR (FFCC-Moreras-FFCC),3,par_8_20632,ESTUDIOS CINEMATOGRÁFICOS-MEDIODÍA,40.037899017334,-3.57871770858765,13:45:00,13:45:00,15,0,http://www.wikidata.org/entity/Q5755509
9010201_9__1__013_-9__1__013__2_13:45:00_1_-__15_9__1__013_,9__1__013_,9010201_9__1__013_,ESTACIÓN-EST.ARANJUEZ,0,9__1__013__1_-_IT_1,1,L1 CIRCULAR (FFCC-Moreras-FFCC),3,par_8_20633,CECILIO LÁZARO-VÍCTIMAS DEL TERRORISMO,40.0358238220215,-3.58082175254822,13:45:00,13:45:00,16,0,http://www.wikidata.org/entity/Q5755509
9010201_9__1__013_-9__1__013__2_13:45:00_1_-__15_9__1__013_,9__1__013_,9010201_9__1__013_,ESTACIÓN-EST.ARANJUEZ,0,9__1__013__1_-_IT_1,1,L1 CIRCULAR (FFCC-Moreras-FFCC),3,par_8_16768,MORERAS-JULIO VALDEÓN,40.0347328186035,-3.58466863632202,13:45:00,13:45:00,17,2,http://www.wikidata.org/entity/Q85696104
9010201_9__1__013_-9__1__013__2_13:45:00_1_-__15_9__1__013_,9__1__013_,9010201_9__1__013_,ESTACIÓN-EST.ARANJUEZ,0,9__1__013__1_-_IT_1,1,L1 CIRCULAR (FFCC-Moreras-FFCC),3,par_8_20630,ÁLVAREZ DE QUINDOS-CÁNDIDO LÓPEZ Y MALTA,40.0346527099609,-3.58845376968384,13:45:00,13:45:00,18,0,http://www.wikidata.org/entity/Q85696104
9010201_9__1__013_-9__1__013__2_13:45:00_1_-__15_9__1__013_,9__1__013_,9010201_9__1__013_,ESTACIÓN-EST.ARANJUEZ,0,9__1__013__1_-_IT_1,1,L1 CIRCULAR (FFCC-Moreras-FFCC),3,par_8_20627,ALVAREZ DE QUINDOS-CUARTELES,40.0328063964844,-3.58992648124695,13:45:00,13:45:00,19,0,http://www.wikidata.org/entity/Q85696104
9010201_9__1__013_-9__1__013__2_13:45:00_1_-__15_9__1__013_,9__1__013_,9010201_9__1__013_,ESTACIÓN-EST.ARANJUEZ,0,9__1__013__1_-_IT_1,1,L1 CIRCULAR (FFCC-Moreras-FFCC),3,par_8_16763,GTA.NUEVO ARANJUEZ-PRIMERO DE MAYO,40.0324859619141,-3.59264302253723,13:45:00,13:45:00,20,2,http://www.wikidata.org/entity/Q24024570
9010201_9__1__013_-9__1__013__2_13:45:00_1_-__15_9__1__013_,9__1__013_,9010201_9__1__013_,ESTACIÓN-EST.ARANJUEZ,0,9__1__013__1_-_IT_1,1,L1 CIRCULAR (FFCC-Moreras-FFCC),3,par_8_09602,PRIMERO DE MAYO-POLIDEPORTIVO,40.0340003967285,-3.59256219863892,13:45:00,13:45:00,21,2,http://www.wikidata.org/entity/Q85696104
9010201_9__1__013_-9__1__013__2_13:45:00_1_-__15_9__1__013_,9__1__013_,9010201_9__1__013_,ESTACIÓN-EST.ARANJUEZ,0,9__1__013__1_-_IT_1,1,L1 CIRCULAR (FFCC-Moreras-FFCC),3,par_8_09594,MORERAS-PRIMERO DE MAYO,40.0353126525879,-3.59279632568359,13:45:00,13:45:00,22,2,http://www.wikidata.org/entity/Q85696104
9010201_9__1__013_-9__1__013__2_13:45:00_1_-__15_9__1__013_,9__1__013_,9010201_9__1__013_,ESTACIÓN-EST.ARANJUEZ,0,9__1__013__1_-_IT_1,1,L1 CIRCULAR (FFCC-Moreras-FFCC),3,par_8_09591,MORERAS-ANCHA,40.035457611084,-3.59477853775024,13:45:00,13:45:00,23,2,http://www.wikidata.org/entity/Q5909173
9010201_9__1__013_-9__1__013__2_13:45:00_1_-__15_9__1__013_,9__1__013_,9010201_9__1__013_,ESTACIÓN-EST.ARANJUEZ,0,9__1__013__1_-_IT_1,1,L1 CIRCULAR (FFCC-Moreras-FFCC),3,par_8_09588,PRÍNCIPE-IGLESIA,40.0357513427734,-3.59848499298096,13:45:00,13:45:00,24,2,http://www.wikidata.org/entity/Q135485669
9010201_9__1__013_-9__1__013__2_13:45:00_1_-__15_9__1__013_,9__1__013_,9010201_9__1__013_,ESTACIÓN-EST.ARANJUEZ,0,9__1__013__1_-_IT_1,1,L1 CIRCULAR (FFCC-Moreras-FFCC),3,par_8_19407,INFANTAS-CAP.ANGOSTO GÓMEZ CASTRILLÓN,40.0348091125488,-3.60132479667664,13:45:00,13:45:00,25,0,http://www.wikidata.org/entity/Q8343724
9010201_9__1__013_-9__1__013__2_13:45:00_1_-__15_9__1__013_,9__1__013_,9010201_9__1__013_,ESTACIÓN-EST.ARANJUEZ,0,9__1__013__1_-_IT_1,1,L1 CIRCULAR (FFCC-Moreras-FFCC),3,par_8_09583,REY-AUDITORIO,40.0323905944824,-3.60051822662354,13:45:00,13:45:00,26,2,http://www.wikidata.org/entity/Q27038964
9010201_9__1__013_-9__1__013__2_13:45:00_1_-__15_9__1__013_,9__1__013_,9010201_9__1__013_,ESTACIÓN-EST.ARANJUEZ,0,9__1__013__1_-_IT_1,1,L1 CIRCULAR (FFCC-Moreras-FFCC),3,par_8_16754,GOBERNADOR-ALMÍBAR,40.0324363708496,-3.60239410400391,13:45:00,13:45:00,27,2,http://www.wikidata.org/entity/Q109946504
9010201_9__1__013_-9__1__013__2_13:45:00_1_-__15_9__1__013_,9__1__013_,9010201_9__1__013_,ESTACIÓN-EST.ARANJUEZ,0,9__1__013__1_-_IT_1,1,L1 CIRCULAR (FFCC-Moreras-FFCC),3,par_8_09571,GOBERNADOR-MERCADO DE ABASTOS,40.0326385498047,-3.60506820678711,13:45:00,13:45:00,28,2,http://www.wikidata.org/entity/Q6010514
9010201_9__1__013_-9__1__013__2_13:45:00_1_-__15_9__1__013_,9__1__013_,9010201_9__1__013_,ESTACIÓN-EST.ARANJUEZ,0,9__1__013__1_-_IT_1,1,L1 CIRCULAR (FFCC-Moreras-FFCC),3,par_8_09573,GOBERNADOR-VALERAS,40.032772064209,-3.60856199264526,13:45:00,13:45:00,29,2,http://www.wikidata.org/entity/Q111388619
9010201_9__1__013_-9__1__013__2_13:45:00_1_-__15_9__1__013_,9__1__013_,9010201_9__1__013_,ESTACIÓN-EST.ARANJUEZ,0,9__1__013__1_-_IT_1,1,L1 CIRCULAR (FFCC-Moreras-FFCC),3,par_8_21328,VALERAS-SAN ANTONIO,40.0337829589844,-3.60854744911194,13:45:00,13:45:00,30,0,http://www.wikidata.org/entity/Q111388619
9010201_9__1__013_-9__1__013__2_13:45:00_1_-__15_9__1__013_,9__1__013_,9010201_9__1__013_,ESTACIÓN-EST.ARANJUEZ,0,9__1__013__1_-_IT_1,1,L1 CIRCULAR (FFCC-Moreras-FFCC),3,par_8_09568,ESTACIÓN-EST.ARANJUEZ,40.0345268249512,-3.61783719062805,13:45:00,13:45:00,31,2,http://www.wikidata.org/entity/Q3394535
9010201_9__1__013_-9__1__013__2_14:45:00_1_-__17_9__1__013_,9__1__013_,9010201_9__1__013_,ESTACIÓN-EST.ARANJUEZ,0,9__1__013__1_-_IT_1,1,L1 CIRCULAR (FFCC-Moreras-FFCC),3,par_8_09568,ESTACIÓN-EST.ARANJUEZ,40.0345268249512,-3.61783719062805,14:45:00,14:45:00,0,2,http://www.wikidata.org/entity/Q3394535
9010201_9__1__013_-9__1__013__2_14:45:00_1_-__17_9__1__013_,9__1__013_,9010201_9__1__013_,ESTACIÓN-EST.ARANJUEZ,0,9__1__013__1_-_IT_1,1,L1 CIRCULAR (FFCC-Moreras-FFCC),3,par_8_21327,VALERAS-SAN ANTONIO,40.0337181091309,-3.60868763923645,14:45:00,14:45:00,1,0,http://www.wikidata.org/entity/Q111388619
9010201_9__1__013_-9__1__013__2_14:45:00_1_-__17_9__1__013_,9__1__013_,9010201_9__1__013_,ESTACIÓN-EST.ARANJUEZ,0,9__1__013__1_-_IT_1,1,L1 CIRCULAR (FFCC-Moreras-FFCC),3,par_8_09572,ABASTOS-FLORIDA,40.0320510864258,-3.60703206062317,14:45:00,14:45:00,2,2,http://www.wikidata.org/entity/Q109946281
9010201_9__1__013_-9__1__013__2_14:45:00_1_-__17_9__1__013_,9__1__013_,9010201_9__1__013_,ESTACIÓN-EST.ARANJUEZ,0,9__1__013__1_-_IT_1,1,L1 CIRCULAR (FFCC-Moreras-FFCC),3,par_8_09576,ABASTOS-AYUNTAMIENTO,40.0319328308105,-3.60386633872986,14:45:00,14:45:00,3,2,http://www.wikidata.org/entity/Q126830041
9010201_9__1__013_-9__1__013__2_14:45:00_1_-__17_9__1__013_,9__1__013_,9010201_9__1__013_,ESTACIÓN-EST.ARANJUEZ,0,9__1__013__1_-_IT_1,1,L1 CIRCULAR (FFCC-Moreras-FFCC),3,par_8_09640,ABASTOS-CONCHA,40.0317115783691,-3.60102796554565,14:45:00,14:45:00,4,2,http://www.wikidata.org/entity/Q42200530
9010201_9__1__013_-9__1__013__2_14:45:00_1_-__17_9__1__013_,9__1__013_,9010201_9__1__013_,ESTACIÓN-EST.ARANJUEZ,0,9__1__013__1_-_IT_1,1,L1 CIRCULAR (FFCC-Moreras-FFCC),3,par_8_09584,FOSO-GOBERNADOR,40.0323944091797,-3.59809231758118,14:45:00,14:45:00,5,2,http://www.wikidata.org/entity/Q27038964
9010201_9__1__013_-9__1__013__2_14:45:00_1_-__17_9__1__013_,9__1__013_,9010201_9__1__013_,ESTACIÓN-EST.ARANJUEZ,0,9__1__013__1_-_IT_1,1,L1 CIRCULAR (FFCC-Moreras-FFCC),3,par_8_09585,FOSO-INFANTAS,40.0333786010742,-3.59798359870911,14:45:00,14:45:00,6,2,http://www.wikidata.org/entity/Q8343724
9010201_9__1__013_-9__1__013__2_14:45:00_1_-__17_9__1__013_,9__1__013_,9010201_9__1__013_,ESTACIÓN-EST.ARANJUEZ,0,9__1__013__1_-_IT_1,1,L1 CIRCULAR (FFCC-Moreras-FFCC),3,par_8_09590,MORERAS-LA BARRACA DE FEDERICO GªLORCA,40.0354804992676,-3.59678292274475,14:45:00,14:45:00,7,2,http://www.wikidata.org/entity/Q5909173
9010201_9__1__013_-9__1__013__2_14:45:00_1_-__17_9__1__013_,9__1__013_,9010201_9__1__013_,ESTACIÓN-EST.ARANJUEZ,0,9__1__013__1_-_IT_1,1,L1 CIRCULAR (FFCC-Moreras-FFCC),3,par_8_09592,MORERAS-ANCHA,40.0353317260742,-3.59467196464539,14:45:00,14:45:00,8,2,http://www.wikidata.org/entity/Q85696104
9010201_9__1__013_-9__1__013__2_14:45:00_1_-__17_9__1__013_,9__1__013_,9010201_9__1__013_,ESTACIÓN-EST.ARANJUEZ,0,9__1__013__1_-_IT_1,1,L1 CIRCULAR (FFCC-Moreras-FFCC),3,par_8_09593,MORERAS-PRIMERO DE MAYO,40.035213470459,-3.59281897544861,14:45:00,14:45:00,9,2,http://www.wikidata.org/entity/Q85696104
9010201_9__1__013_-9__1__013__2_14:45:00_1_-__17_9__1__013_,9__1__013_,9010201_9__1__013_,ESTACIÓN-EST.ARANJUEZ,0,9__1__013__1_-_IT_1,1,L1 CIRCULAR (FFCC-Moreras-FFCC),3,par_8_17126,PRIMERO DE MAYO-POLIDEPORTIVO,40.0340423583984,-3.59273838996887,14:45:00,14:45:00,10,2,http://www.wikidata.org/entity/Q85696104
9010201_9__1__013_-9__1__013__2_14:45:00_1_-__17_9__1__013_,9__1__013_,9010201_9__1__013_,ESTACIÓN-EST.ARANJUEZ,0,9__1__013__1_-_IT_1,1,L1 CIRCULAR (FFCC-Moreras-FFCC),3,par_8_09577,GTA.NUEVO ARANJUEZ-CUARTELES,40.0324363708496,-3.5931932926178,14:45:00,14:45:00,11,2,http://www.wikidata.org/entity/Q24024570
9010201_9__1__013_-9__1__013__2_14:45:00_1_-__17_9__1__013_,9__1__013_,9010201_9__1__013_,ESTACIÓN-EST.ARANJUEZ,0,9__1__013__1_-_IT_1,1,L1 CIRCULAR (FFCC-Moreras-FFCC),3,par_8_09597,MORERAS-COLEGIO,40.0349349975586,-3.58926510810852,14:45:00,14:45:00,12,2,http://www.wikidata.org/entity/Q85696104
9010201_9__1__013_-9__1__013__2_14:45:00_1_-__17_9__1__013_,9__1__013_,9010201_9__1__013_,ESTACIÓN-EST.ARANJUEZ,0,9__1__013__1_-_IT_1,1,L1 CIRCULAR (FFCC-Moreras-FFCC),3,par_8_16102,MORERAS-AUGUSTO MORENO,40.0346069335938,-3.584632396698,14:45:00,14:45:00,13,2,http://www.wikidata.org/entity/Q85696104
9010201_9__1__013_-9__1__013__2_14:45:00_1_-__17_9__1__013_,9__1__013_,9010201_9__1__013_,ESTACIÓN-EST.ARANJUEZ,0,9__1__013__1_-_IT_1,1,L1 CIRCULAR (FFCC-Moreras-FFCC),3,par_8_20631,CARAMILLAR-NORIA,40.0358085632324,-3.57899308204651,14:45:00,14:45:00,14,0,http://www.wikidata.org/entity/Q5755509
9010201_9__1__013_-9__1__013__2_14:45:00_1_-__17_9__1__013_,9__1__013_,9010201_9__1__013_,ESTACIÓN-EST.ARANJUEZ,0,9__1__013__1_-_IT_1,1,L1 CIRCULAR (FFCC-Moreras-FFCC),3,par_8_20632,ESTUDIOS CINEMATOGRÁFICOS-MEDIODÍA,40.037899017334,-3.57871770858765,14:45:00,14:45:00,15,0,http://www.wikidata.org/entity/Q5755509
9010201_9__1__013_-9__1__013__2_14:45:00_1_-__17_9__1__013_,9__1__013_,9010201_9__1__013_,ESTACIÓN-EST.ARANJUEZ,0,9__1__013__1_-_IT_1,1,L1 CIRCULAR (FFCC-Moreras-FFCC),3,par_8_20633,CECILIO LÁZARO-VÍCTIMAS DEL TERRORISMO,40.0358238220215,-3.58082175254822,14:45:00,14:45:00,16,0,http://www.wikidata.org/entity/Q5755509
9010201_9__1__013_-9__1__013__2_14:45:00_1_-__17_9__1__013_,9__1__013_,9010201_9__1__013_,ESTACIÓN-EST.ARANJUEZ,0,9__1__013__1_-_IT_1,1,L1 CIRCULAR (FFCC-Moreras-FFCC),3,par_8_16768,MORERAS-JULIO VALDEÓN,40.0347328186035,-3.58466863632202,14:45:00,14:45:00,17,2,http://www.wikidata.org/entity/Q85696104
9010201_9__1__013_-9__1__013__2_14:45:00_1_-__17_9__1__013_,9__1__013_,9010201_9__1__013_,ESTACIÓN-EST.ARANJUEZ,0,9__1__013__1_-_IT_1,1,L1 CIRCULAR (FFCC-Moreras-FFCC),3,par_8_20630,ÁLVAREZ DE QUINDOS-CÁNDIDO LÓPEZ Y MALTA,40.0346527099609,-3.58845376968384,14:45:00,14:45:00,18,0,http://www.wikidata.org/entity/Q85696104
9010201_9__1__013_-9__1__013__2_14:45:00_1_-__17_9__1__013_,9__1__013_,9010201_9__1__013_,ESTACIÓN-EST.ARANJUEZ,0,9__1__013__1_-_IT_1,1,L1 CIRCULAR (FFCC-Moreras-FFCC),3,par_8_20627,ALVAREZ DE QUINDOS-CUARTELES,40.0328063964844,-3.58992648124695,14:45:00,14:45:00,19,0,http://www.wikidata.org/entity/Q85696104
9010201_9__1__013_-9__1__013__2_14:45:00_1_-__17_9__1__013_,9__1__013_,9010201_9__1__013_,ESTACIÓN-EST.ARANJUEZ,0,9__1__013__1_-_IT_1,1,L1 CIRCULAR (FFCC-Moreras-FFCC),3,par_8_16763,GTA.NUEVO ARANJUEZ-PRIMERO DE MAYO,40.0324859619141,-3.59264302253723,14:45:00,14:45:00,20,2,http://www.wikidata.org/entity/Q24024570
9010201_9__1__013_-9__1__013__2_14:45:00_1_-__17_9__1__013_,9__1__013_,9010201_9__1__013_,ESTACIÓN-EST.ARANJUEZ,0,9__1__013__1_-_IT_1,1,L1 CIRCULAR (FFCC-Moreras-FFCC),3,par_8_09602,PRIMERO DE MAYO-POLIDEPORTIVO,40.0340003967285,-3.59256219863892,14:45:00,14:45:00,21,2,http://www.wikidata.org/entity/Q85696104
9010201_9__1__013_-9__1__013__2_14:45:00_1_-__17_9__1__013_,9__1__013_,9010201_9__1__013_,ESTACIÓN-EST.ARANJUEZ,0,9__1__013__1_-_IT_1,1,L1 CIRCULAR (FFCC-Moreras-FFCC),3,par_8_09594,MORERAS-PRIMERO DE MAYO,40.0353126525879,-3.59279632568359,14:45:00,14:45:00,22,2,http://www.wikidata.org/entity/Q85696104
9010201_9__1__013_-9__1__013__2_14:45:00_1_-__17_9__1__013_,9__1__013_,9010201_9__1__013_,ESTACIÓN-EST.ARANJUEZ,0,9__1__013__1_-_IT_1,1,L1 CIRCULAR (FFCC-Moreras-FFCC),3,par_8_09591,MORERAS-ANCHA,40.035457611084,-3.59477853775024,14:45:00,14:45:00,23,2,http://www.wikidata.org/entity/Q5909173
9010201_9__1__013_-9__1__013__2_14:45:00_1_-__17_9__1__013_,9__1__013_,9010201_9__1__013_,ESTACIÓN-EST.ARANJUEZ,0,9__1__013__1_-_IT_1,1,L1 CIRCULAR (FFCC-Moreras-FFCC),3,par_8_09588,PRÍNCIPE-IGLESIA,40.0357513427734,-3.59848499298096,14:45:00,14:45:00,24,2,http://www.wikidata.org/entity/Q135485669
9010201_9__1__013_-9__1__013__2_14:45:00_1_-__17_9__1__013_,9__1__013_,9010201_9__1__013_,ESTACIÓN-EST.ARANJUEZ,0,9__1__013__1_-_IT_1,1,L1 CIRCULAR (FFCC-Moreras-FFCC),3,par_8_19407,INFANTAS-CAP.ANGOSTO GÓMEZ CASTRILLÓN,40.0348091125488,-3.60132479667664,14:45:00,14:45:00,25,0,http://www.wikidata.org/entity/Q8343724
9010201_9__1__013_-9__1__013__2_14:45:00_1_-__17_9__1__013_,9__1__013_,9010201_9__1__013_,ESTACIÓN-EST.ARANJUEZ,0,9__1__013__1_-_IT_1,1,L1 CIRCULAR (FFCC-Moreras-FFCC),3,par_8_09583,REY-AUDITORIO,40.0323905944824,-3.60051822662354,14:45:00,14:45:00,26,2,http://www.wikidata.org/entity/Q27038964
9010201_9__1__013_-9__1__013__2_14:45:00_1_-__17_9__1__013_,9__1__013_,9010201_9__1__013_,ESTACIÓN-EST.ARANJUEZ,0,9__1__013__1_-_IT_1,1,L1 CIRCULAR (FFCC-Moreras-FFCC),3,par_8_16754,GOBERNADOR-ALMÍBAR,40.0324363708496,-3.60239410400391,14:45:00,14:45:00,27,2,http://www.wikidata.org/entity/Q109946504
9010201_9__1__013_-9__1__013__2_14:45:00_1_-__17_9__1__013_,9__1__013_,9010201_9__1__013_,ESTACIÓN-EST.ARANJUEZ,0,9__1__013__1_-_IT_1,1,L1 CIRCULAR (FFCC-Moreras-FFCC),3,par_8_09571,GOBERNADOR-MERCADO DE ABASTOS,40.0326385498047,-3.60506820678711,14:45:00,14:45:00,28,2,http://www.wikidata.org/entity/Q6010514
9010201_9__1__013_-9__1__013__2_14:45:00_1_-__17_9__1__013_,9__1__013_,9010201_9__1__013_,ESTACIÓN-EST.ARANJUEZ,0,9__1__013__1_-_IT_1,1,L1 CIRCULAR (FFCC-Moreras-FFCC),3,par_8_09573,GOBERNADOR-VALERAS,40.032772064209,-3.60856199264526,14:45:00,14:45:00,29,2,http://www.wikidata.org/entity/Q111388619
9010201_9__1__013_-9__1__013__2_14:45:00_1_-__17_9__1__013_,9__1__013_,9010201_9__1__013_,ESTACIÓN-EST.ARANJUEZ,0,9__1__013__1_-_IT_1,1,L1 CIRCULAR (FFCC-Moreras-FFCC),3,par_8_21328,VALERAS-SAN ANTONIO,40.0337829589844,-3.60854744911194,14:45:00,14:45:00,30,0,http://www.wikidata.org/entity/Q111388619
9010201_9__1__013_-9__1__013__2_14:45:00_1_-__17_9__1__013_,9__1__013_,9010201_9__1__013_,ESTACIÓN-EST.ARANJUEZ,0,9__1__013__1_-_IT_1,1,L1 CIRCULAR (FFCC-Moreras-FFCC),3,par_8_09568,ESTACIÓN-EST.ARANJUEZ,40.0345268249512,-3.61783719062805,14:45:00,14:45:00,31,2,http://www.wikidata.org/entity/Q3394535
9010201_9__1__013_-9__1__013__2_15:45:00_1_-__18_9__1__013_,9__1__013_,9010201_9__1__013_,ESTACIÓN-EST.ARANJUEZ,0,9__1__013__1_-_IT_1,1,L1 CIRCULAR (FFCC-Moreras-FFCC),3,par_8_09568,ESTACIÓN-EST.ARANJUEZ,40.0345268249512,-3.61783719062805,15:45:00,15:45:00,0,2,http://www.wikidata.org/entity/Q3394535
9010201_9__1__013_-9__1__013__2_15:45:00_1_-__18_9__1__013_,9__1__013_,9010201_9__1__013_,ESTACIÓN-EST.ARANJUEZ,0,9__1__013__1_-_IT_1,1,L1 CIRCULAR (FFCC-Moreras-FFCC),3,par_8_21327,VALERAS-SAN ANTONIO,40.0337181091309,-3.60868763923645,15:45:00,15:45:00,1,0,http://www.wikidata.org/entity/Q111388619
9010201_9__1__013_-9__1__013__2_15:45:00_1_-__18_9__1__013_,9__1__013_,9010201_9__1__013_,ESTACIÓN-EST.ARANJUEZ,0,9__1__013__1_-_IT_1,1,L1 CIRCULAR (FFCC-Moreras-FFCC),3,par_8_09572,ABASTOS-FLORIDA,40.0320510864258,-3.60703206062317,15:45:00,15:45:00,2,2,http://www.wikidata.org/entity/Q109946281
9010201_9__1__013_-9__1__013__2_15:45:00_1_-__18_9__1__013_,9__1__013_,9010201_9__1__013_,ESTACIÓN-EST.ARANJUEZ,0,9__1__013__1_-_IT_1,1,L1 CIRCULAR (FFCC-Moreras-FFCC),3,par_8_09576,ABASTOS-AYUNTAMIENTO,40.0319328308105,-3.60386633872986,15:45:00,15:45:00,3,2,http://www.wikidata.org/entity/Q126830041
9010201_9__1__013_-9__1__013__2_15:45:00_1_-__18_9__1__013_,9__1__013_,9010201_9__1__013_,ESTACIÓN-EST.ARANJUEZ,0,9__1__013__1_-_IT_1,1,L1 CIRCULAR (FFCC-Moreras-FFCC),3,par_8_09640,ABASTOS-CONCHA,40.0317115783691,-3.60102796554565,15:45:00,15:45:00,4,2,http://www.wikidata.org/entity/Q42200530
9010201_9__1__013_-9__1__013__2_15:45:00_1_-__18_9__1__013_,9__1__013_,9010201_9__1__013_,ESTACIÓN-EST.ARANJUEZ,0,9__1__013__1_-_IT_1,1,L1 CIRCULAR (FFCC-Moreras-FFCC),3,par_8_09584,FOSO-GOBERNADOR,40.0323944091797,-3.59809231758118,15:45:00,15:45:00,5,2,http://www.wikidata.org/entity/Q27038964
9010201_9__1__013_-9__1__013__2_15:45:00_1_-__18_9__1__013_,9__1__013_,9010201_9__1__013_,ESTACIÓN-EST.ARANJUEZ,0,9__1__013__1_-_IT_1,1,L1 CIRCULAR (FFCC-Moreras-FFCC),3,par_8_09585,FOSO-INFANTAS,40.0333786010742,-3.59798359870911,15:45:00,15:45:00,6,2,http://www.wikidata.org/entity/Q8343724
9010201_9__1__013_-9__1__013__2_15:45:00_1_-__18_9__1__013_,9__1__013_,9010201_9__1__013_,ESTACIÓN-EST.ARANJUEZ,0,9__1__013__1_-_IT_1,1,L1 CIRCULAR (FFCC-Moreras-FFCC),3,par_8_09590,MORERAS-LA BARRACA DE FEDERICO GªLORCA,40.0354804992676,-3.59678292274475,15:45:00,15:45:00,7,2,http://www.wikidata.org/entity/Q5909173
9010201_9__1__013_-9__1__013__2_15:45:00_1_-__18_9__1__013_,9__1__013_,9010201_9__1__013_,ESTACIÓN-EST.ARANJUEZ,0,9__1__013__1_-_IT_1,1,L1 CIRCULAR (FFCC-Moreras-FFCC),3,par_8_09592,MORERAS-ANCHA,40.0353317260742,-3.59467196464539,15:45:00,15:45:00,8,2,http://www.wikidata.org/entity/Q85696104
9010201_9__1__013_-9__1__013__2_15:45:00_1_-__18_9__1__013_,9__1__013_,9010201_9__1__013_,ESTACIÓN-EST.ARANJUEZ,0,9__1__013__1_-_IT_1,1,L1 CIRCULAR (FFCC-Moreras-FFCC),3,par_8_09593,MORERAS-PRIMERO DE MAYO,40.035213470459,-3.59281897544861,15:45:00,15:45:00,9,2,http://www.wikidata.org/entity/Q85696104
9010201_9__1__013_-9__1__013__2_15:45:00_1_-__18_9__1__013_,9__1__013_,9010201_9__1__013_,ESTACIÓN-EST.ARANJUEZ,0,9__1__013__1_-_IT_1,1,L1 CIRCULAR (FFCC-Moreras-FFCC),3,par_8_17126,PRIMERO DE MAYO-POLIDEPORTIVO,40.0340423583984,-3.59273838996887,15:45:00,15:45:00,10,2,http://www.wikidata.org/entity/Q85696104
9010201_9__1__013_-9__1__013__2_15:45:00_1_-__18_9__1__013_,9__1__013_,9010201_9__1__013_,ESTACIÓN-EST.ARANJUEZ,0,9__1__013__1_-_IT_1,1,L1 CIRCULAR (FFCC-Moreras-FFCC),3,par_8_09577,GTA.NUEVO ARANJUEZ-CUARTELES,40.0324363708496,-3.5931932926178,15:45:00,15:45:00,11,2,http://www.wikidata.org/entity/Q24024570
9010201_9__1__013_-9__1__013__2_15:45:00_1_-__18_9__1__013_,9__1__013_,9010201_9__1__013_,ESTACIÓN-EST.ARANJUEZ,0,9__1__013__1_-_IT_1,1,L1 CIRCULAR (FFCC-Moreras-FFCC),3,par_8_09597,MORERAS-COLEGIO,40.0349349975586,-3.58926510810852,15:45:00,15:45:00,12,2,http://www.wikidata.org/entity/Q85696104
9010201_9__1__013_-9__1__013__2_15:45:00_1_-__18_9__1__013_,9__1__013_,9010201_9__1__013_,ESTACIÓN-EST.ARANJUEZ,0,9__1__013__1_-_IT_1,1,L1 CIRCULAR (FFCC-Moreras-FFCC),3,par_8_16102,MORERAS-AUGUSTO MORENO,40.0346069335938,-3.584632396698,15:45:00,15:45:00,13,2,http://www.wikidata.org/entity/Q85696104
9010201_9__1__013_-9__1__013__2_15:45:00_1_-__18_9__1__013_,9__1__013_,9010201_9__1__013_,ESTACIÓN-EST.ARANJUEZ,0,9__1__013__1_-_IT_1,1,L1 CIRCULAR (FFCC-Moreras-FFCC),3,par_8_20631,CARAMILLAR-NORIA,40.0358085632324,-3.57899308204651,15:45:00,15:45:00,14,0,http://www.wikidata.org/entity/Q5755509
9010201_9__1__013_-9__1__013__2_15:45:00_1_-__18_9__1__013_,9__1__013_,9010201_9__1__013_,ESTACIÓN-EST.ARANJUEZ,0,9__1__013__1_-_IT_1,1,L1 CIRCULAR (FFCC-Moreras-FFCC),3,par_8_20632,ESTUDIOS CINEMATOGRÁFICOS-MEDIODÍA,40.037899017334,-3.57871770858765,15:45:00,15:45:00,15,0,http://www.wikidata.org/entity/Q5755509
9010201_9__1__013_-9__1__013__2_15:45:00_1_-__18_9__1__013_,9__1__013_,9010201_9__1__013_,ESTACIÓN-EST.ARANJUEZ,0,9__1__013__1_-_IT_1,1,L1 CIRCULAR (FFCC-Moreras-FFCC),3,par_8_20633,CECILIO LÁZARO-VÍCTIMAS DEL TERRORISMO,40.0358238220215,-3.58082175254822,15:45:00,15:45:00,16,0,http://www.wikidata.org/entity/Q5755509
9010201_9__1__013_-9__1__013__2_15:45:00_1_-__18_9__1__013_,9__1__013_,9010201_9__1__013_,ESTACIÓN-EST.ARANJUEZ,0,9__1__013__1_-_IT_1,1,L1 CIRCULAR (FFCC-Moreras-FFCC),3,par_8_16768,MORERAS-JULIO VALDEÓN,40.0347328186035,-3.58466863632202,15:45:00,15:45:00,17,2,http://www.wikidata.org/entity/Q85696104
9010201_9__1__013_-9__1__013__2_15:45:00_1_-__18_9__1__013_,9__1__013_,9010201_9__1__013_,ESTACIÓN-EST.ARANJUEZ,0,9__1__013__1_-_IT_1,1,L1 CIRCULAR (FFCC-Moreras-FFCC),3,par_8_20630,ÁLVAREZ DE QUINDOS-CÁNDIDO LÓPEZ Y MALTA,40.0346527099609,-3.58845376968384,15:45:00,15:45:00,18,0,http://www.wikidata.org/entity/Q85696104
9010201_9__1__013_-9__1__013__2_15:45:00_1_-__18_9__1__013_,9__1__013_,9010201_9__1__013_,ESTACIÓN-EST.ARANJUEZ,0,9__1__013__1_-_IT_1,1,L1 CIRCULAR (FFCC-Moreras-FFCC),3,par_8_20627,ALVAREZ DE QUINDOS-CUARTELES,40.0328063964844,-3.58992648124695,15:45:00,15:45:00,19,0,http://www.wikidata.org/entity/Q85696104
9010201_9__1__013_-9__1__013__2_15:45:00_1_-__18_9__1__013_,9__1__013_,9010201_9__1__013_,ESTACIÓN-EST.ARANJUEZ,0,9__1__013__1_-_IT_1,1,L1 CIRCULAR (FFCC-Moreras-FFCC),3,par_8_16763,GTA.NUEVO ARANJUEZ-PRIMERO DE MAYO,40.0324859619141,-3.59264302253723,15:45:00,15:45:00,20,2,http://www.wikidata.org/entity/Q24024570
9010201_9__1__013_-9__1__013__2_15:45:00_1_-__18_9__1__013_,9__1__013_,9010201_9__1__013_,ESTACIÓN-EST.ARANJUEZ,0,9__1__013__1_-_IT_1,1,L1 CIRCULAR (FFCC-Moreras-FFCC),3,par_8_09602,PRIMERO DE MAYO-POLIDEPORTIVO,40.0340003967285,-3.59256219863892,15:45:00,15:45:00,21,2,http://www.wikidata.org/entity/Q85696104
9010201_9__1__013_-9__1__013__2_15:45:00_1_-__18_9__1__013_,9__1__013_,9010201_9__1__013_,ESTACIÓN-EST.ARANJUEZ,0,9__1__013__1_-_IT_1,1,L1 CIRCULAR (FFCC-Moreras-FFCC),3,par_8_09594,MORERAS-PRIMERO DE MAYO,40.0353126525879,-3.59279632568359,15:45:00,15:45:00,22,2,http://www.wikidata.org/entity/Q85696104
9010201_9__1__013_-9__1__013__2_15:45:00_1_-__18_9__1__013_,9__1__013_,9010201_9__1__013_,ESTACIÓN-EST.ARANJUEZ,0,9__1__013__1_-_IT_1,1,L1 CIRCULAR (FFCC-Moreras-FFCC),3,par_8_09591,MORERAS-ANCHA,40.035457611084,-3.59477853775024,15:45:00,15:45:00,23,2,http://www.wikidata.org/entity/Q5909173
9010201_9__1__013_-9__1__013__2_15:45:00_1_-__18_9__1__013_,9__1__013_,9010201_9__1__013_,ESTACIÓN-EST.ARANJUEZ,0,9__1__013__1_-_IT_1,1,L1 CIRCULAR (FFCC-Moreras-FFCC),3,par_8_09588,PRÍNCIPE-IGLESIA,40.0357513427734,-3.59848499298096,15:45:00,15:45:00,24,2,http://www.wikidata.org/entity/Q135485669
9010201_9__1__013_-9__1__013__2_15:45:00_1_-__18_9__1__013_,9__1__013_,9010201_9__1__013_,ESTACIÓN-EST.ARANJUEZ,0,9__1__013__1_-_IT_1,1,L1 CIRCULAR (FFCC-Moreras-FFCC),3,par_8_19407,INFANTAS-CAP.ANGOSTO GÓMEZ CASTRILLÓN,40.0348091125488,-3.60132479667664,15:45:00,15:45:00,25,0,http://www.wikidata.org/entity/Q8343724
9010201_9__1__013_-9__1__013__2_15:45:00_1_-__18_9__1__013_,9__1__013_,9010201_9__1__013_,ESTACIÓN-EST.ARANJUEZ,0,9__1__013__1_-_IT_1,1,L1 CIRCULAR (FFCC-Moreras-FFCC),3,par_8_09583,REY-AUDITORIO,40.0323905944824,-3.60051822662354,15:45:00,15:45:00,26,2,http://www.wikidata.org/entity/Q27038964
9010201_9__1__013_-9__1__013__2_15:45:00_1_-__18_9__1__013_,9__1__013_,9010201_9__1__013_,ESTACIÓN-EST.ARANJUEZ,0,9__1__013__1_-_IT_1,1,L1 CIRCULAR (FFCC-Moreras-FFCC),3,par_8_16754,GOBERNADOR-ALMÍBAR,40.0324363708496,-3.60239410400391,15:45:00,15:45:00,27,2,http://www.wikidata.org/entity/Q109946504
9010201_9__1__013_-9__1__013__2_15:45:00_1_-__18_9__1__013_,9__1__013_,9010201_9__1__013_,ESTACIÓN-EST.ARANJUEZ,0,9__1__013__1_-_IT_1,1,L1 CIRCULAR (FFCC-Moreras-FFCC),3,par_8_09571,GOBERNADOR-MERCADO DE ABASTOS,40.0326385498047,-3.60506820678711,15:45:00,15:45:00,28,2,http://www.wikidata.org/entity/Q6010514
9010201_9__1__013_-9__1__013__2_15:45:00_1_-__18_9__1__013_,9__1__013_,9010201_9__1__013_,ESTACIÓN-EST.ARANJUEZ,0,9__1__013__1_-_IT_1,1,L1 CIRCULAR (FFCC-Moreras-FFCC),3,par_8_09573,GOBERNADOR-VALERAS,40.032772064209,-3.60856199264526,15:45:00,15:45:00,29,2,http://www.wikidata.org/entity/Q111388619
9010201_9__1__013_-9__1__013__2_15:45:00_1_-__18_9__1__013_,9__1__013_,9010201_9__1__013_,ESTACIÓN-EST.ARANJUEZ,0,9__1__013__1_-_IT_1,1,L1 CIRCULAR (FFCC-Moreras-FFCC),3,par_8_21328,VALERAS-SAN ANTONIO,40.0337829589844,-3.60854744911194,15:45:00,15:45:00,30,0,http://www.wikidata.org/entity/Q111388619
9010201_9__1__013_-9__1__013__2_15:45:00_1_-__18_9__1__013_,9__1__013_,9010201_9__1__013_,ESTACIÓN-EST.ARANJUEZ,0,9__1__013__1_-_IT_1,1,L1 CIRCULAR (FFCC-Moreras-FFCC),3,par_8_09568,ESTACIÓN-EST.ARANJUEZ,40.0345268249512,-3.61783719062805,15:45:00,15:45:00,31,2,http://www.wikidata.org/entity/Q3394535
9010201_9__1__013_-9__1__013__2_16:45:00_1_-__19_9__1__013_,9__1__013_,9010201_9__1__013_,ESTACIÓN-EST.ARANJUEZ,0,9__1__013__1_-_IT_1,1,L1 CIRCULAR (FFCC-Moreras-FFCC),3,par_8_09568,ESTACIÓN-EST.ARANJUEZ,40.0345268249512,-3.61783719062805,16:45:00,16:45:00,0,2,http://www.wikidata.org/entity/Q3394535
9010201_9__1__013_-9__1__013__2_16:45:00_1_-__19_9__1__013_,9__1__013_,9010201_9__1__013_,ESTACIÓN-EST.ARANJUEZ,0,9__1__013__1_-_IT_1,1,L1 CIRCULAR (FFCC-Moreras-FFCC),3,par_8_21327,VALERAS-SAN ANTONIO,40.0337181091309,-3.60868763923645,16:45:00,16:45:00,1,0,http://www.wikidata.org/entity/Q111388619
9010201_9__1__013_-9__1__013__2_16:45:00_1_-__19_9__1__013_,9__1__013_,9010201_9__1__013_,ESTACIÓN-EST.ARANJUEZ,0,9__1__013__1_-_IT_1,1,L1 CIRCULAR (FFCC-Moreras-FFCC),3,par_8_09572,ABASTOS-FLORIDA,40.0320510864258,-3.60703206062317,16:45:00,16:45:00,2,2,http://www.wikidata.org/entity/Q109946281
9010201_9__1__013_-9__1__013__2_16:45:00_1_-__19_9__1__013_,9__1__013_,9010201_9__1__013_,ESTACIÓN-EST.ARANJUEZ,0,9__1__013__1_-_IT_1,1,L1 CIRCULAR (FFCC-Moreras-FFCC),3,par_8_09576,ABASTOS-AYUNTAMIENTO,40.0319328308105,-3.60386633872986,16:45:00,16:45:00,3,2,http://www.wikidata.org/entity/Q126830041
9010201_9__1__013_-9__1__013__2_16:45:00_1_-__19_9__1__013_,9__1__013_,9010201_9__1__013_,ESTACIÓN-EST.ARANJUEZ,0,9__1__013__1_-_IT_1,1,L1 CIRCULAR (FFCC-Moreras-FFCC),3,par_8_09640,ABASTOS-CONCHA,40.0317115783691,-3.60102796554565,16:45:00,16:45:00,4,2,http://www.wikidata.org/entity/Q42200530
9010201_9__1__013_-9__1__013__2_16:45:00_1_-__19_9__1__013_,9__1__013_,9010201_9__1__013_,ESTACIÓN-EST.ARANJUEZ,0,9__1__013__1_-_IT_1,1,L1 CIRCULAR (FFCC-Moreras-FFCC),3,par_8_09584,FOSO-GOBERNADOR,40.0323944091797,-3.59809231758118,16:45:00,16:45:00,5,2,http://www.wikidata.org/entity/Q27038964
9010201_9__1__013_-9__1__013__2_16:45:00_1_-__19_9__1__013_,9__1__013_,9010201_9__1__013_,ESTACIÓN-EST.ARANJUEZ,0,9__1__013__1_-_IT_1,1,L1 CIRCULAR (FFCC-Moreras-FFCC),3,par_8_09585,FOSO-INFANTAS,40.0333786010742,-3.59798359870911,16:45:00,16:45:00,6,2,http://www.wikidata.org/entity/Q8343724
9010201_9__1__013_-9__1__013__2_16:45:00_1_-__19_9__1__013_,9__1__013_,9010201_9__1__013_,ESTACIÓN-EST.ARANJUEZ,0,9__1__013__1_-_IT_1,1,L1 CIRCULAR (FFCC-Moreras-FFCC),3,par_8_09590,MORERAS-LA BARRACA DE FEDERICO GªLORCA,40.0354804992676,-3.59678292274475,16:45:00,16:45:00,7,2,http://www.wikidata.org/entity/Q5909173
9010201_9__1__013_-9__1__013__2_16:45:00_1_-__19_9__1__013_,9__1__013_,9010201_9__1__013_,ESTACIÓN-EST.ARANJUEZ,0,9__1__013__1_-_IT_1,1,L1 CIRCULAR (FFCC-Moreras-FFCC),3,par_8_09592,MORERAS-ANCHA,40.0353317260742,-3.59467196464539,16:45:00,16:45:00,8,2,http://www.wikidata.org/entity/Q85696104
9010201_9__1__013_-9__1__013__2_16:45:00_1_-__19_9__1__013_,9__1__013_,9010201_9__1__013_,ESTACIÓN-EST.ARANJUEZ,0,9__1__013__1_-_IT_1,1,L1 CIRCULAR (FFCC-Moreras-FFCC),3,par_8_09593,MORERAS-PRIMERO DE MAYO,40.035213470459,-3.59281897544861,16:45:00,16:45:00,9,2,http://www.wikidata.org/entity/Q85696104
9010201_9__1__013_-9__1__013__2_16:45:00_1_-__19_9__1__013_,9__1__013_,9010201_9__1__013_,ESTACIÓN-EST.ARANJUEZ,0,9__1__013__1_-_IT_1,1,L1 CIRCULAR (FFCC-Moreras-FFCC),3,par_8_17126,PRIMERO DE MAYO-POLIDEPORTIVO,40.0340423583984,-3.59273838996887,16:45:00,16:45:00,10,2,http://www.wikidata.org/entity/Q85696104
9010201_9__1__013_-9__1__013__2_16:45:00_1_-__19_9__1__013_,9__1__013_,9010201_9__1__013_,ESTACIÓN-EST.ARANJUEZ,0,9__1__013__1_-_IT_1,1,L1 CIRCULAR (FFCC-Moreras-FFCC),3,par_8_09577,GTA.NUEVO ARANJUEZ-CUARTELES,40.0324363708496,-3.5931932926178,16:45:00,16:45:00,11,2,http://www.wikidata.org/entity/Q24024570
9010201_9__1__013_-9__1__013__2_16:45:00_1_-__19_9__1__013_,9__1__013_,9010201_9__1__013_,ESTACIÓN-EST.ARANJUEZ,0,9__1__013__1_-_IT_1,1,L1 CIRCULAR (FFCC-Moreras-FFCC),3,par_8_09597,MORERAS-COLEGIO,40.0349349975586,-3.58926510810852,16:45:00,16:45:00,12,2,http://www.wikidata.org/entity/Q85696104
9010201_9__1__013_-9__1__013__2_16:45:00_1_-__19_9__1__013_,9__1__013_,9010201_9__1__013_,ESTACIÓN-EST.ARANJUEZ,0,9__1__013__1_-_IT_1,1,L1 CIRCULAR (FFCC-Moreras-FFCC),3,par_8_16102,MORERAS-AUGUSTO MORENO,40.0346069335938,-3.584632396698,16:45:00,16:45:00,13,2,http://www.wikidata.org/entity/Q85696104
9010201_9__1__013_-9__1__013__2_16:45:00_1_-__19_9__1__013_,9__1__013_,9010201_9__1__013_,ESTACIÓN-EST.ARANJUEZ,0,9__1__013__1_-_IT_1,1,L1 CIRCULAR (FFCC-Moreras-FFCC),3,par_8_20631,CARAMILLAR-NORIA,40.0358085632324,-3.57899308204651,16:45:00,16:45:00,14,0,http://www.wikidata.org/entity/Q5755509
9010201_9__1__013_-9__1__013__2_16:45:00_1_-__19_9__1__013_,9__1__013_,9010201_9__1__013_,ESTACIÓN-EST.ARANJUEZ,0,9__1__013__1_-_IT_1,1,L1 CIRCULAR (FFCC-Moreras-FFCC),3,par_8_20632,ESTUDIOS CINEMATOGRÁFICOS-MEDIODÍA,40.037899017334,-3.57871770858765,16:45:00,16:45:00,15,0,http://www.wikidata.org/entity/Q5755509
9010201_9__1__013_-9__1__013__2_16:45:00_1_-__19_9__1__013_,9__1__013_,9010201_9__1__013_,ESTACIÓN-EST.ARANJUEZ,0,9__1__013__1_-_IT_1,1,L1 CIRCULAR (FFCC-Moreras-FFCC),3,par_8_20633,CECILIO LÁZARO-VÍCTIMAS DEL TERRORISMO,40.0358238220215,-3.58082175254822,16:45:00,16:45:00,16,0,http://www.wikidata.org/entity/Q5755509
9010201_9__1__013_-9__1__013__2_16:45:00_1_-__19_9__1__013_,9__1__013_,9010201_9__1__013_,ESTACIÓN-EST.ARANJUEZ,0,9__1__013__1_-_IT_1,1,L1 CIRCULAR (FFCC-Moreras-FFCC),3,par_8_16768,MORERAS-JULIO VALDEÓN,40.0347328186035,-3.58466863632202,16:45:00,16:45:00,17,2,http://www.wikidata.org/entity/Q85696104
9010201_9__1__013_-9__1__013__2_16:45:00_1_-__19_9__1__013_,9__1__013_,9010201_9__1__013_,ESTACIÓN-EST.ARANJUEZ,0,9__1__013__1_-_IT_1,1,L1 CIRCULAR (FFCC-Moreras-FFCC),3,par_8_20630,ÁLVAREZ DE QUINDOS-CÁNDIDO LÓPEZ Y MALTA,40.0346527099609,-3.58845376968384,16:45:00,16:45:00,18,0,http://www.wikidata.org/entity/Q85696104
9010201_9__1__013_-9__1__013__2_16:45:00_1_-__19_9__1__013_,9__1__013_,9010201_9__1__013_,ESTACIÓN-EST.ARANJUEZ,0,9__1__013__1_-_IT_1,1,L1 CIRCULAR (FFCC-Moreras-FFCC),3,par_8_20627,ALVAREZ DE QUINDOS-CUARTELES,40.0328063964844,-3.58992648124695,16:45:00,16:45:00,19,0,http://www.wikidata.org/entity/Q85696104
9010201_9__1__013_-9__1__013__2_16:45:00_1_-__19_9__1__013_,9__1__013_,9010201_9__1__013_,ESTACIÓN-EST.ARANJUEZ,0,9__1__013__1_-_IT_1,1,L1 CIRCULAR (FFCC-Moreras-FFCC),3,par_8_16763,GTA.NUEVO ARANJUEZ-PRIMERO DE MAYO,40.0324859619141,-3.59264302253723,16:45:00,16:45:00,20,2,http://www.wikidata.org/entity/Q24024570
9010201_9__1__013_-9__1__013__2_16:45:00_1_-__19_9__1__013_,9__1__013_,9010201_9__1__013_,ESTACIÓN-EST.ARANJUEZ,0,9__1__013__1_-_IT_1,1,L1 CIRCULAR (FFCC-Moreras-FFCC),3,par_8_09602,PRIMERO DE MAYO-POLIDEPORTIVO,40.0340003967285,-3.59256219863892,16:45:00,16:45:00,21,2,http://www.wikidata.org/entity/Q85696104
9010201_9__1__013_-9__1__013__2_16:45:00_1_-__19_9__1__013_,9__1__013_,9010201_9__1__013_,ESTACIÓN-EST.ARANJUEZ,0,9__1__013__1_-_IT_1,1,L1 CIRCULAR (FFCC-Moreras-FFCC),3,par_8_09594,MORERAS-PRIMERO DE MAYO,40.0353126525879,-3.59279632568359,16:45:00,16:45:00,22,2,http://www.wikidata.org/entity/Q85696104
9010201_9__1__013_-9__1__013__2_16:45:00_1_-__19_9__1__013_,9__1__013_,9010201_9__1__013_,ESTACIÓN-EST.ARANJUEZ,0,9__1__013__1_-_IT_1,1,L1 CIRCULAR (FFCC-Moreras-FFCC),3,par_8_09591,MORERAS-ANCHA,40.035457611084,-3.59477853775024,16:45:00,16:45:00,23,2,http://www.wikidata.org/entity/Q5909173
9010201_9__1__013_-9__1__013__2_16:45:00_1_-__19_9__1__013_,9__1__013_,9010201_9__1__013_,ESTACIÓN-EST.ARANJUEZ,0,9__1__013__1_-_IT_1,1,L1 CIRCULAR (FFCC-Moreras-FFCC),3,par_8_09588,PRÍNCIPE-IGLESIA,40.0357513427734,-3.59848499298096,16:45:00,16:45:00,24,2,http://www.wikidata.org/entity/Q135485669
9010201_9__1__013_-9__1__013__2_16:45:00_1_-__19_9__1__013_,9__1__013_,9010201_9__1__013_,ESTACIÓN-EST.ARANJUEZ,0,9__1__013__1_-_IT_1,1,L1 CIRCULAR (FFCC-Moreras-FFCC),3,par_8_19407,INFANTAS-CAP.ANGOSTO GÓMEZ CASTRILLÓN,40.0348091125488,-3.60132479667664,16:45:00,16:45:00,25,0,http://www.wikidata.org/entity/Q8343724
9010201_9__1__013_-9__1__013__2_16:45:00_1_-__19_9__1__013_,9__1__013_,9010201_9__1__013_,ESTACIÓN-EST.ARANJUEZ,0,9__1__013__1_-_IT_1,1,L1 CIRCULAR (FFCC-Moreras-FFCC),3,par_8_09583,REY-AUDITORIO,40.0323905944824,-3.60051822662354,16:45:00,16:45:00,26,2,http://www.wikidata.org/entity/Q27038964
9010201_9__1__013_-9__1__013__2_16:45:00_1_-__19_9__1__013_,9__1__013_,9010201_9__1__013_,ESTACIÓN-EST.ARANJUEZ,0,9__1__013__1_-_IT_1,1,L1 CIRCULAR (FFCC-Moreras-FFCC),3,par_8_16754,GOBERNADOR-ALMÍBAR,40.0324363708496,-3.60239410400391,16:45:00,16:45:00,27,2,http://www.wikidata.org/entity/Q109946504
9010201_9__1__013_-9__1__013__2_16:45:00_1_-__19_9__1__013_,9__1__013_,9010201_9__1__013_,ESTACIÓN-EST.ARANJUEZ,0,9__1__013__1_-_IT_1,1,L1 CIRCULAR (FFCC-Moreras-FFCC),3,par_8_09571,GOBERNADOR-MERCADO DE ABASTOS,40.0326385498047,-3.60506820678711,16:45:00,16:45:00,28,2,http://www.wikidata.org/entity/Q6010514
9010201_9__1__013_-9__1__013__2_16:45:00_1_-__19_9__1__013_,9__1__013_,9010201_9__1__013_,ESTACIÓN-EST.ARANJUEZ,0,9__1__013__1_-_IT_1,1,L1 CIRCULAR (FFCC-Moreras-FFCC),3,par_8_09573,GOBERNADOR-VALERAS,40.032772064209,-3.60856199264526,16:45:00,16:45:00,29,2,http://www.wikidata.org/entity/Q111388619
9010201_9__1__013_-9__1__013__2_16:45:00_1_-__19_9__1__013_,9__1__013_,9010201_9__1__013_,ESTACIÓN-EST.ARANJUEZ,0,9__1__013__1_-_IT_1,1,L1 CIRCULAR (FFCC-Moreras-FFCC),3,par_8_21328,VALERAS-SAN ANTONIO,40.0337829589844,-3.60854744911194,16:45:00,16:45:00,30,0,http://www.wikidata.org/entity/Q111388619
9010201_9__1__013_-9__1__013__2_16:45:00_1_-__19_9__1__013_,9__1__013_,9010201_9__1__013_,ESTACIÓN-EST.ARANJUEZ,0,9__1__013__1_-_IT_1,1,L1 CIRCULAR (FFCC-Moreras-FFCC),3,par_8_09568,ESTACIÓN-EST.ARANJUEZ,40.0345268249512,-3.61783719062805,16:45:00,16:45:00,31,2,http://www.wikidata.org/entity/Q3394535
9010201_9__1__013_-9__1__013__2_17:45:00_1_-__20_9__1__013_,9__1__013_,9010201_9__1__013_,ESTACIÓN-EST.ARANJUEZ,0,9__1__013__1_-_IT_1,1,L1 CIRCULAR (FFCC-Moreras-FFCC),3,par_8_09568,ESTACIÓN-EST.ARANJUEZ,40.0345268249512,-3.61783719062805,17:45:00,17:45:00,0,2,http://www.wikidata.org/entity/Q3394535
9010201_9__1__013_-9__1__013__2_17:45:00_1_-__20_9__1__013_,9__1__013_,9010201_9__1__013_,ESTACIÓN-EST.ARANJUEZ,0,9__1__013__1_-_IT_1,1,L1 CIRCULAR (FFCC-Moreras-FFCC),3,par_8_21327,VALERAS-SAN ANTONIO,40.0337181091309,-3.60868763923645,17:45:00,17:45:00,1,0,http://www.wikidata.org/entity/Q111388619
9010201_9__1__013_-9__1__013__2_17:45:00_1_-__20_9__1__013_,9__1__013_,9010201_9__1__013_,ESTACIÓN-EST.ARANJUEZ,0,9__1__013__1_-_IT_1,1,L1 CIRCULAR (FFCC-Moreras-FFCC),3,par_8_09572,ABASTOS-FLORIDA,40.0320510864258,-3.60703206062317,17:45:00,17:45:00,2,2,http://www.wikidata.org/entity/Q109946281
9010201_9__1__013_-9__1__013__2_17:45:00_1_-__20_9__1__013_,9__1__013_,9010201_9__1__013_,ESTACIÓN-EST.ARANJUEZ,0,9__1__013__1_-_IT_1,1,L1 CIRCULAR (FFCC-Moreras-FFCC),3,par_8_09576,ABASTOS-AYUNTAMIENTO,40.0319328308105,-3.60386633872986,17:45:00,17:45:00,3,2,http://www.wikidata.org/entity/Q126830041
9010201_9__1__013_-9__1__013__2_17:45:00_1_-__20_9__1__013_,9__1__013_,9010201_9__1__013_,ESTACIÓN-EST.ARANJUEZ,0,9__1__013__1_-_IT_1,1,L1 CIRCULAR (FFCC-Moreras-FFCC),3,par_8_09640,ABASTOS-CONCHA,40.0317115783691,-3.60102796554565,17:45:00,17:45:00,4,2,http://www.wikidata.org/entity/Q42200530
9010201_9__1__013_-9__1__013__2_17:45:00_1_-__20_9__1__013_,9__1__013_,9010201_9__1__013_,ESTACIÓN-EST.ARANJUEZ,0,9__1__013__1_-_IT_1,1,L1 CIRCULAR (FFCC-Moreras-FFCC),3,par_8_09584,FOSO-GOBERNADOR,40.0323944091797,-3.59809231758118,17:45:00,17:45:00,5,2,http://www.wikidata.org/entity/Q27038964
9010201_9__1__013_-9__1__013__2_17:45:00_1_-__20_9__1__013_,9__1__013_,9010201_9__1__013_,ESTACIÓN-EST.ARANJUEZ,0,9__1__013__1_-_IT_1,1,L1 CIRCULAR (FFCC-Moreras-FFCC),3,par_8_09585,FOSO-INFANTAS,40.0333786010742,-3.59798359870911,17:45:00,17:45:00,6,2,http://www.wikidata.org/entity/Q8343724
9010201_9__1__013_-9__1__013__2_17:45:00_1_-__20_9__1__013_,9__1__013_,9010201_9__1__013_,ESTACIÓN-EST.ARANJUEZ,0,9__1__013__1_-_IT_1,1,L1 CIRCULAR (FFCC-Moreras-FFCC),3,par_8_09590,MORERAS-LA BARRACA DE FEDERICO GªLORCA,40.0354804992676,-3.59678292274475,17:45:00,17:45:00,7,2,http://www.wikidata.org/entity/Q5909173
9010201_9__1__013_-9__1__013__2_17:45:00_1_-__20_9__1__013_,9__1__013_,9010201_9__1__013_,ESTACIÓN-EST.ARANJUEZ,0,9__1__013__1_-_IT_1,1,L1 CIRCULAR (FFCC-Moreras-FFCC),3,par_8_09592,MORERAS-ANCHA,40.0353317260742,-3.59467196464539,17:45:00,17:45:00,8,2,http://www.wikidata.org/entity/Q85696104
9010201_9__1__013_-9__1__013__2_17:45:00_1_-__20_9__1__013_,9__1__013_,9010201_9__1__013_,ESTACIÓN-EST.ARANJUEZ,0,9__1__013__1_-_IT_1,1,L1 CIRCULAR (FFCC-Moreras-FFCC),3,par_8_09593,MORERAS-PRIMERO DE MAYO,40.035213470459,-3.59281897544861,17:45:00,17:45:00,9,2,http://www.wikidata.org/entity/Q85696104
9010201_9__1__013_-9__1__013__2_17:45:00_1_-__20_9__1__013_,9__1__013_,9010201_9__1__013_,ESTACIÓN-EST.ARANJUEZ,0,9__1__013__1_-_IT_1,1,L1 CIRCULAR (FFCC-Moreras-FFCC),3,par_8_17126,PRIMERO DE MAYO-POLIDEPORTIVO,40.0340423583984,-3.59273838996887,17:45:00,17:45:00,10,2,http://www.wikidata.org/entity/Q85696104
9010201_9__1__013_-9__1__013__2_17:45:00_1_-__20_9__1__013_,9__1__013_,9010201_9__1__013_,ESTACIÓN-EST.ARANJUEZ,0,9__1__013__1_-_IT_1,1,L1 CIRCULAR (FFCC-Moreras-FFCC),3,par_8_09577,GTA.NUEVO ARANJUEZ-CUARTELES,40.0324363708496,-3.5931932926178,17:45:00,17:45:00,11,2,http://www.wikidata.org/entity/Q24024570
9010201_9__1__013_-9__1__013__2_17:45:00_1_-__20_9__1__013_,9__1__013_,9010201_9__1__013_,ESTACIÓN-EST.ARANJUEZ,0,9__1__013__1_-_IT_1,1,L1 CIRCULAR (FFCC-Moreras-FFCC),3,par_8_09597,MORERAS-COLEGIO,40.0349349975586,-3.58926510810852,17:45:00,17:45:00,12,2,http://www.wikidata.org/entity/Q85696104
9010201_9__1__013_-9__1__013__2_17:45:00_1_-__20_9__1__013_,9__1__013_,9010201_9__1__013_,ESTACIÓN-EST.ARANJUEZ,0,9__1__013__1_-_IT_1,1,L1 CIRCULAR (FFCC-Moreras-FFCC),3,par_8_16102,MORERAS-AUGUSTO MORENO,40.0346069335938,-3.584632396698,17:45:00,17:45:00,13,2,http://www.wikidata.org/entity/Q85696104
9010201_9__1__013_-9__1__013__2_17:45:00_1_-__20_9__1__013_,9__1__013_,9010201_9__1__013_,ESTACIÓN-EST.ARANJUEZ,0,9__1__013__1_-_IT_1,1,L1 CIRCULAR (FFCC-Moreras-FFCC),3,par_8_20631,CARAMILLAR-NORIA,40.0358085632324,-3.57899308204651,17:45:00,17:45:00,14,0,http://www.wikidata.org/entity/Q5755509
9010201_9__1__013_-9__1__013__2_17:45:00_1_-__20_9__1__013_,9__1__013_,9010201_9__1__013_,ESTACIÓN-EST.ARANJUEZ,0,9__1__013__1_-_IT_1,1,L1 CIRCULAR (FFCC-Moreras-FFCC),3,par_8_20632,ESTUDIOS CINEMATOGRÁFICOS-MEDIODÍA,40.037899017334,-3.57871770858765,17:45:00,17:45:00,15,0,http://www.wikidata.org/entity/Q5755509
9010201_9__1__013_-9__1__013__2_17:45:00_1_-__20_9__1__013_,9__1__013_,9010201_9__1__013_,ESTACIÓN-EST.ARANJUEZ,0,9__1__013__1_-_IT_1,1,L1 CIRCULAR (FFCC-Moreras-FFCC),3,par_8_20633,CECILIO LÁZARO-VÍCTIMAS DEL TERRORISMO,40.0358238220215,-3.58082175254822,17:45:00,17:45:00,16,0,http://www.wikidata.org/entity/Q5755509
9010201_9__1__013_-9__1__013__2_17:45:00_1_-__20_9__1__013_,9__1__013_,9010201_9__1__013_,ESTACIÓN-EST.ARANJUEZ,0,9__1__013__1_-_IT_1,1,L1 CIRCULAR (FFCC-Moreras-FFCC),3,par_8_16768,MORERAS-JULIO VALDEÓN,40.0347328186035,-3.58466863632202,17:45:00,17:45:00,17,2,http://www.wikidata.org/entity/Q85696104
9010201_9__1__013_-9__1__013__2_17:45:00_1_-__20_9__1__013_,9__1__013_,9010201_9__1__013_,ESTACIÓN-EST.ARANJUEZ,0,9__1__013__1_-_IT_1,1,L1 CIRCULAR (FFCC-Moreras-FFCC),3,par_8_20630,ÁLVAREZ DE QUINDOS-CÁNDIDO LÓPEZ Y MALTA,40.0346527099609,-3.58845376968384,17:45:00,17:45:00,18,0,http://www.wikidata.org/entity/Q85696104
9010201_9__1__013_-9__1__013__2_17:45:00_1_-__20_9__1__013_,9__1__013_,9010201_9__1__013_,ESTACIÓN-EST.ARANJUEZ,0,9__1__013__1_-_IT_1,1,L1 CIRCULAR (FFCC-Moreras-FFCC),3,par_8_20627,ALVAREZ DE QUINDOS-CUARTELES,40.0328063964844,-3.58992648124695,17:45:00,17:45:00,19,0,http://www.wikidata.org/entity/Q85696104
9010201_9__1__013_-9__1__013__2_17:45:00_1_-__20_9__1__013_,9__1__013_,9010201_9__1__013_,ESTACIÓN-EST.ARANJUEZ,0,9__1__013__1_-_IT_1,1,L1 CIRCULAR (FFCC-Moreras-FFCC),3,par_8_16763,GTA.NUEVO ARANJUEZ-PRIMERO DE MAYO,40.0324859619141,-3.59264302253723,17:45:00,17:45:00,20,2,http://www.wikidata.org/entity/Q24024570
9010201_9__1__013_-9__1__013__2_17:45:00_1_-__20_9__1__013_,9__1__013_,9010201_9__1__013_,ESTACIÓN-EST.ARANJUEZ,0,9__1__013__1_-_IT_1,1,L1 CIRCULAR (FFCC-Moreras-FFCC),3,par_8_09602,PRIMERO DE MAYO-POLIDEPORTIVO,40.0340003967285,-3.59256219863892,17:45:00,17:45:00,21,2,http://www.wikidata.org/entity/Q85696104
9010201_9__1__013_-9__1__013__2_17:45:00_1_-__20_9__1__013_,9__1__013_,9010201_9__1__013_,ESTACIÓN-EST.ARANJUEZ,0,9__1__013__1_-_IT_1,1,L1 CIRCULAR (FFCC-Moreras-FFCC),3,par_8_09594,MORERAS-PRIMERO DE MAYO,40.0353126525879,-3.59279632568359,17:45:00,17:45:00,22,2,http://www.wikidata.org/entity/Q85696104
9010201_9__1__013_-9__1__013__2_17:45:00_1_-__20_9__1__013_,9__1__013_,9010201_9__1__013_,ESTACIÓN-EST.ARANJUEZ,0,9__1__013__1_-_IT_1,1,L1 CIRCULAR (FFCC-Moreras-FFCC),3,par_8_09591,MORERAS-ANCHA,40.035457611084,-3.59477853775024,17:45:00,17:45:00,23,2,http://www.wikidata.org/entity/Q5909173
9010201_9__1__013_-9__1__013__2_17:45:00_1_-__20_9__1__013_,9__1__013_,9010201_9__1__013_,ESTACIÓN-EST.ARANJUEZ,0,9__1__013__1_-_IT_1,1,L1 CIRCULAR (FFCC-Moreras-FFCC),3,par_8_09588,PRÍNCIPE-IGLESIA,40.0357513427734,-3.59848499298096,17:45:00,17:45:00,24,2,http://www.wikidata.org/entity/Q135485669
9010201_9__1__013_-9__1__013__2_17:45:00_1_-__20_9__1__013_,9__1__013_,9010201_9__1__013_,ESTACIÓN-EST.ARANJUEZ,0,9__1__013__1_-_IT_1,1,L1 CIRCULAR (FFCC-Moreras-FFCC),3,par_8_19407,INFANTAS-CAP.ANGOSTO GÓMEZ CASTRILLÓN,40.0348091125488,-3.60132479667664,17:45:00,17:45:00,25,0,http://www.wikidata.org/entity/Q8343724
9010201_9__1__013_-9__1__013__2_17:45:00_1_-__20_9__1__013_,9__1__013_,9010201_9__1__013_,ESTACIÓN-EST.ARANJUEZ,0,9__1__013__1_-_IT_1,1,L1 CIRCULAR (FFCC-Moreras-FFCC),3,par_8_09583,REY-AUDITORIO,40.0323905944824,-3.60051822662354,17:45:00,17:45:00,26,2,http://www.wikidata.org/entity/Q27038964
9010201_9__1__013_-9__1__013__2_17:45:00_1_-__20_9__1__013_,9__1__013_,9010201_9__1__013_,ESTACIÓN-EST.ARANJUEZ,0,9__1__013__1_-_IT_1,1,L1 CIRCULAR (FFCC-Moreras-FFCC),3,par_8_16754,GOBERNADOR-ALMÍBAR,40.0324363708496,-3.60239410400391,17:45:00,17:45:00,27,2,http://www.wikidata.org/entity/Q109946504
9010201_9__1__013_-9__1__013__2_17:45:00_1_-__20_9__1__013_,9__1__013_,9010201_9__1__013_,ESTACIÓN-EST.ARANJUEZ,0,9__1__013__1_-_IT_1,1,L1 CIRCULAR (FFCC-Moreras-FFCC),3,par_8_09571,GOBERNADOR-MERCADO DE ABASTOS,40.0326385498047,-3.60506820678711,17:45:00,17:45:00,28,2,http://www.wikidata.org/entity/Q6010514
9010201_9__1__013_-9__1__013__2_17:45:00_1_-__20_9__1__013_,9__1__013_,9010201_9__1__013_,ESTACIÓN-EST.ARANJUEZ,0,9__1__013__1_-_IT_1,1,L1 CIRCULAR (FFCC-Moreras-FFCC),3,par_8_09573,GOBERNADOR-VALERAS,40.032772064209,-3.60856199264526,17:45:00,17:45:00,29,2,http://www.wikidata.org/entity/Q111388619
9010201_9__1__013_-9__1__013__2_17:45:00_1_-__20_9__1__013_,9__1__013_,9010201_9__1__013_,ESTACIÓN-EST.ARANJUEZ,0,9__1__013__1_-_IT_1,1,L1 CIRCULAR (FFCC-Moreras-FFCC),3,par_8_21328,VALERAS-SAN ANTONIO,40.0337829589844,-3.60854744911194,17:45:00,17:45:00,30,0,http://www.wikidata.org/entity/Q111388619
9010201_9__1__013_-9__1__013__2_17:45:00_1_-__20_9__1__013_,9__1__013_,9010201_9__1__013_,ESTACIÓN-EST.ARANJUEZ,0,9__1__013__1_-_IT_1,1,L1 CIRCULAR (FFCC-Moreras-FFCC),3,par_8_09568,ESTACIÓN-EST.ARANJUEZ,40.0345268249512,-3.61783719062805,17:45:00,17:45:00,31,2,http://www.wikidata.org/entity/Q3394535
9010201_9__1__013_-9__1__013__2_18:45:00_1_-__21_9__1__013_,9__1__013_,9010201_9__1__013_,ESTACIÓN-EST.ARANJUEZ,0,9__1__013__1_-_IT_1,1,L1 CIRCULAR (FFCC-Moreras-FFCC),3,par_8_09568,ESTACIÓN-EST.ARANJUEZ,40.0345268249512,-3.61783719062805,18:45:00,18:45:00,0,2,http://www.wikidata.org/entity/Q3394535
9010201_9__1__013_-9__1__013__2_18:45:00_1_-__21_9__1__013_,9__1__013_,9010201_9__1__013_,ESTACIÓN-EST.ARANJUEZ,0,9__1__013__1_-_IT_1,1,L1 CIRCULAR (FFCC-Moreras-FFCC),3,par_8_21327,VALERAS-SAN ANTONIO,40.0337181091309,-3.60868763923645,18:45:00,18:45:00,1,0,http://www.wikidata.org/entity/Q111388619
9010201_9__1__013_-9__1__013__2_18:45:00_1_-__21_9__1__013_,9__1__013_,9010201_9__1__013_,ESTACIÓN-EST.ARANJUEZ,0,9__1__013__1_-_IT_1,1,L1 CIRCULAR (FFCC-Moreras-FFCC),3,par_8_09572,ABASTOS-FLORIDA,40.0320510864258,-3.60703206062317,18:45:00,18:45:00,2,2,http://www.wikidata.org/entity/Q109946281
9010201_9__1__013_-9__1__013__2_18:45:00_1_-__21_9__1__013_,9__1__013_,9010201_9__1__013_,ESTACIÓN-EST.ARANJUEZ,0,9__1__013__1_-_IT_1,1,L1 CIRCULAR (FFCC-Moreras-FFCC),3,par_8_09576,ABASTOS-AYUNTAMIENTO,40.0319328308105,-3.60386633872986,18:45:00,18:45:00,3,2,http://www.wikidata.org/entity/Q126830041
9010201_9__1__013_-9__1__013__2_18:45:00_1_-__21_9__1__013_,9__1__013_,9010201_9__1__013_,ESTACIÓN-EST.ARANJUEZ,0,9__1__013__1_-_IT_1,1,L1 CIRCULAR (FFCC-Moreras-FFCC),3,par_8_09640,ABASTOS-CONCHA,40.0317115783691,-3.60102796554565,18:45:00,18:45:00,4,2,http://www.wikidata.org/entity/Q42200530
9010201_9__1__013_-9__1__013__2_18:45:00_1_-__21_9__1__013_,9__1__013_,9010201_9__1__013_,ESTACIÓN-EST.ARANJUEZ,0,9__1__013__1_-_IT_1,1,L1 CIRCULAR (FFCC-Moreras-FFCC),3,par_8_09584,FOSO-GOBERNADOR,40.0323944091797,-3.59809231758118,18:45:00,18:45:00,5,2,http://www.wikidata.org/entity/Q27038964
9010201_9__1__013_-9__1__013__2_18:45:00_1_-__21_9__1__013_,9__1__013_,9010201_9__1__013_,ESTACIÓN-EST.ARANJUEZ,0,9__1__013__1_-_IT_1,1,L1 CIRCULAR (FFCC-Moreras-FFCC),3,par_8_09585,FOSO-INFANTAS,40.0333786010742,-3.59798359870911,18:45:00,18:45:00,6,2,http://www.wikidata.org/entity/Q8343724
9010201_9__1__013_-9__1__013__2_18:45:00_1_-__21_9__1__013_,9__1__013_,9010201_9__1__013_,ESTACIÓN-EST.ARANJUEZ,0,9__1__013__1_-_IT_1,1,L1 CIRCULAR (FFCC-Moreras-FFCC),3,par_8_09590,MORERAS-LA BARRACA DE FEDERICO GªLORCA,40.0354804992676,-3.59678292274475,18:45:00,18:45:00,7,2,http://www.wikidata.org/entity/Q5909173
9010201_9__1__013_-9__1__013__2_18:45:00_1_-__21_9__1__013_,9__1__013_,9010201_9__1__013_,ESTACIÓN-EST.ARANJUEZ,0,9__1__013__1_-_IT_1,1,L1 CIRCULAR (FFCC-Moreras-FFCC),3,par_8_09592,MORERAS-ANCHA,40.0353317260742,-3.59467196464539,18:45:00,18:45:00,8,2,http://www.wikidata.org/entity/Q85696104
9010201_9__1__013_-9__1__013__2_18:45:00_1_-__21_9__1__013_,9__1__013_,9010201_9__1__013_,ESTACIÓN-EST.ARANJUEZ,0,9__1__013__1_-_IT_1,1,L1 CIRCULAR (FFCC-Moreras-FFCC),3,par_8_09593,MORERAS-PRIMERO DE MAYO,40.035213470459,-3.59281897544861,18:45:00,18:45:00,9,2,http://www.wikidata.org/entity/Q85696104
9010201_9__1__013_-9__1__013__2_18:45:00_1_-__21_9__1__013_,9__1__013_,9010201_9__1__013_,ESTACIÓN-EST.ARANJUEZ,0,9__1__013__1_-_IT_1,1,L1 CIRCULAR (FFCC-Moreras-FFCC),3,par_8_17126,PRIMERO DE MAYO-POLIDEPORTIVO,40.0340423583984,-3.59273838996887,18:45:00,18:45:00,10,2,http://www.wikidata.org/entity/Q85696104
9010201_9__1__013_-9__1__013__2_18:45:00_1_-__21_9__1__013_,9__1__013_,9010201_9__1__013_,ESTACIÓN-EST.ARANJUEZ,0,9__1__013__1_-_IT_1,1,L1 CIRCULAR (FFCC-Moreras-FFCC),3,par_8_09577,GTA.NUEVO ARANJUEZ-CUARTELES,40.0324363708496,-3.5931932926178,18:45:00,18:45:00,11,2,http://www.wikidata.org/entity/Q24024570
9010201_9__1__013_-9__1__013__2_18:45:00_1_-__21_9__1__013_,9__1__013_,9010201_9__1__013_,ESTACIÓN-EST.ARANJUEZ,0,9__1__013__1_-_IT_1,1,L1 CIRCULAR (FFCC-Moreras-FFCC),3,par_8_09597,MORERAS-COLEGIO,40.0349349975586,-3.58926510810852,18:45:00,18:45:00,12,2,http://www.wikidata.org/entity/Q85696104
9010201_9__1__013_-9__1__013__2_18:45:00_1_-__21_9__1__013_,9__1__013_,9010201_9__1__013_,ESTACIÓN-EST.ARANJUEZ,0,9__1__013__1_-_IT_1,1,L1 CIRCULAR (FFCC-Moreras-FFCC),3,par_8_16102,MORERAS-AUGUSTO MORENO,40.0346069335938,-3.584632396698,18:45:00,18:45:00,13,2,http://www.wikidata.org/entity/Q85696104
9010201_9__1__013_-9__1__013__2_18:45:00_1_-__21_9__1__013_,9__1__013_,9010201_9__1__013_,ESTACIÓN-EST.ARANJUEZ,0,9__1__013__1_-_IT_1,1,L1 CIRCULAR (FFCC-Moreras-FFCC),3,par_8_20631,CARAMILLAR-NORIA,40.0358085632324,-3.57899308204651,18:45:00,18:45:00,14,0,http://www.wikidata.org/entity/Q5755509
9010201_9__1__013_-9__1__013__2_18:45:00_1_-__21_9__1__013_,9__1__013_,9010201_9__1__013_,ESTACIÓN-EST.ARANJUEZ,0,9__1__013__1_-_IT_1,1,L1 CIRCULAR (FFCC-Moreras-FFCC),3,par_8_20632,ESTUDIOS CINEMATOGRÁFICOS-MEDIODÍA,40.037899017334,-3.57871770858765,18:45:00,18:45:00,15,0,http://www.wikidata.org/entity/Q5755509
9010201_9__1__013_-9__1__013__2_18:45:00_1_-__21_9__1__013_,9__1__013_,9010201_9__1__013_,ESTACIÓN-EST.ARANJUEZ,0,9__1__013__1_-_IT_1,1,L1 CIRCULAR (FFCC-Moreras-FFCC),3,par_8_20633,CECILIO LÁZARO-VÍCTIMAS DEL TERRORISMO,40.0358238220215,-3.58082175254822,18:45:00,18:45:00,16,0,http://www.wikidata.org/entity/Q5755509
9010201_9__1__013_-9__1__013__2_18:45:00_1_-__21_9__1__013_,9__1__013_,9010201_9__1__013_,ESTACIÓN-EST.ARANJUEZ,0,9__1__013__1_-_IT_1,1,L1 CIRCULAR (FFCC-Moreras-FFCC),3,par_8_16768,MORERAS-JULIO VALDEÓN,40.0347328186035,-3.58466863632202,18:45:00,18:45:00,17,2,http://www.wikidata.org/entity/Q85696104
9010201_9__1__013_-9__1__013__2_18:45:00_1_-__21_9__1__013_,9__1__013_,9010201_9__1__013_,ESTACIÓN-EST.ARANJUEZ,0,9__1__013__1_-_IT_1,1,L1 CIRCULAR (FFCC-Moreras-FFCC),3,par_8_20630,ÁLVAREZ DE QUINDOS-CÁNDIDO LÓPEZ Y MALTA,40.0346527099609,-3.58845376968384,18:45:00,18:45:00,18,0,http://www.wikidata.org/entity/Q85696104
9010201_9__1__013_-9__1__013__2_18:45:00_1_-__21_9__1__013_,9__1__013_,9010201_9__1__013_,ESTACIÓN-EST.ARANJUEZ,0,9__1__013__1_-_IT_1,1,L1 CIRCULAR (FFCC-Moreras-FFCC),3,par_8_20627,ALVAREZ DE QUINDOS-CUARTELES,40.0328063964844,-3.58992648124695,18:45:00,18:45:00,19,0,http://www.wikidata.org/entity/Q85696104
9010201_9__1__013_-9__1__013__2_18:45:00_1_-__21_9__1__013_,9__1__013_,9010201_9__1__013_,ESTACIÓN-EST.ARANJUEZ,0,9__1__013__1_-_IT_1,1,L1 CIRCULAR (FFCC-Moreras-FFCC),3,par_8_16763,GTA.NUEVO ARANJUEZ-PRIMERO DE MAYO,40.0324859619141,-3.59264302253723,18:45:00,18:45:00,20,2,http://www.wikidata.org/entity/Q24024570
9010201_9__1__013_-9__1__013__2_18:45:00_1_-__21_9__1__013_,9__1__013_,9010201_9__1__013_,ESTACIÓN-EST.ARANJUEZ,0,9__1__013__1_-_IT_1,1,L1 CIRCULAR (FFCC-Moreras-FFCC),3,par_8_09602,PRIMERO DE MAYO-POLIDEPORTIVO,40.0340003967285,-3.59256219863892,18:45:00,18:45:00,21,2,http://www.wikidata.org/entity/Q85696104
9010201_9__1__013_-9__1__013__2_18:45:00_1_-__21_9__1__013_,9__1__013_,9010201_9__1__013_,ESTACIÓN-EST.ARANJUEZ,0,9__1__013__1_-_IT_1,1,L1 CIRCULAR (FFCC-Moreras-FFCC),3,par_8_09594,MORERAS-PRIMERO DE MAYO,40.0353126525879,-3.59279632568359,18:45:00,18:45:00,22,2,http://www.wikidata.org/entity/Q85696104
9010201_9__1__013_-9__1__013__2_18:45:00_1_-__21_9__1__013_,9__1__013_,9010201_9__1__013_,ESTACIÓN-EST.ARANJUEZ,0,9__1__013__1_-_IT_1,1,L1 CIRCULAR (FFCC-Moreras-FFCC),3,par_8_09591,MORERAS-ANCHA,40.035457611084,-3.59477853775024,18:45:00,18:45:00,23,2,http://www.wikidata.org/entity/Q5909173
9010201_9__1__013_-9__1__013__2_18:45:00_1_-__21_9__1__013_,9__1__013_,9010201_9__1__013_,ESTACIÓN-EST.ARANJUEZ,0,9__1__013__1_-_IT_1,1,L1 CIRCULAR (FFCC-Moreras-FFCC),3,par_8_09588,PRÍNCIPE-IGLESIA,40.0357513427734,-3.59848499298096,18:45:00,18:45:00,24,2,http://www.wikidata.org/entity/Q135485669
9010201_9__1__013_-9__1__013__2_18:45:00_1_-__21_9__1__013_,9__1__013_,9010201_9__1__013_,ESTACIÓN-EST.ARANJUEZ,0,9__1__013__1_-_IT_1,1,L1 CIRCULAR (FFCC-Moreras-FFCC),3,par_8_19407,INFANTAS-CAP.ANGOSTO GÓMEZ CASTRILLÓN,40.0348091125488,-3.60132479667664,18:45:00,18:45:00,25,0,http://www.wikidata.org/entity/Q8343724
9010201_9__1__013_-9__1__013__2_18:45:00_1_-__21_9__1__013_,9__1__013_,9010201_9__1__013_,ESTACIÓN-EST.ARANJUEZ,0,9__1__013__1_-_IT_1,1,L1 CIRCULAR (FFCC-Moreras-FFCC),3,par_8_09583,REY-AUDITORIO,40.0323905944824,-3.60051822662354,18:45:00,18:45:00,26,2,http://www.wikidata.org/entity/Q27038964
9010201_9__1__013_-9__1__013__2_18:45:00_1_-__21_9__1__013_,9__1__013_,9010201_9__1__013_,ESTACIÓN-EST.ARANJUEZ,0,9__1__013__1_-_IT_1,1,L1 CIRCULAR (FFCC-Moreras-FFCC),3,par_8_16754,GOBERNADOR-ALMÍBAR,40.0324363708496,-3.60239410400391,18:45:00,18:45:00,27,2,http://www.wikidata.org/entity/Q109946504
9010201_9__1__013_-9__1__013__2_18:45:00_1_-__21_9__1__013_,9__1__013_,9010201_9__1__013_,ESTACIÓN-EST.ARANJUEZ,0,9__1__013__1_-_IT_1,1,L1 CIRCULAR (FFCC-Moreras-FFCC),3,par_8_09571,GOBERNADOR-MERCADO DE ABASTOS,40.0326385498047,-3.60506820678711,18:45:00,18:45:00,28,2,http://www.wikidata.org/entity/Q6010514
9010201_9__1__013_-9__1__013__2_18:45:00_1_-__21_9__1__013_,9__1__013_,9010201_9__1__013_,ESTACIÓN-EST.ARANJUEZ,0,9__1__013__1_-_IT_1,1,L1 CIRCULAR (FFCC-Moreras-FFCC),3,par_8_09573,GOBERNADOR-VALERAS,40.032772064209,-3.60856199264526,18:45:00,18:45:00,29,2,http://www.wikidata.org/entity/Q111388619
9010201_9__1__013_-9__1__013__2_18:45:00_1_-__21_9__1__013_,9__1__013_,9010201_9__1__013_,ESTACIÓN-EST.ARANJUEZ,0,9__1__013__1_-_IT_1,1,L1 CIRCULAR (FFCC-Moreras-FFCC),3,par_8_21328,VALERAS-SAN ANTONIO,40.0337829589844,-3.60854744911194,18:45:00,18:45:00,30,0,http://www.wikidata.org/entity/Q111388619
9010201_9__1__013_-9__1__013__2_18:45:00_1_-__21_9__1__013_,9__1__013_,9010201_9__1__013_,ESTACIÓN-EST.ARANJUEZ,0,9__1__013__1_-_IT_1,1,L1 CIRCULAR (FFCC-Moreras-FFCC),3,par_8_09568,ESTACIÓN-EST.ARANJUEZ,40.0345268249512,-3.61783719062805,18:45:00,18:45:00,31,2,http://www.wikidata.org/entity/Q3394535
9010201_9__1__013_-9__1__013__2_19:45:00_1_-__22_9__1__013_,9__1__013_,9010201_9__1__013_,ESTACIÓN-EST.ARANJUEZ,0,9__1__013__1_-_IT_1,1,L1 CIRCULAR (FFCC-Moreras-FFCC),3,par_8_09568,ESTACIÓN-EST.ARANJUEZ,40.0345268249512,-3.61783719062805,19:45:00,19:45:00,0,2,http://www.wikidata.org/entity/Q3394535
9010201_9__1__013_-9__1__013__2_19:45:00_1_-__22_9__1__013_,9__1__013_,9010201_9__1__013_,ESTACIÓN-EST.ARANJUEZ,0,9__1__013__1_-_IT_1,1,L1 CIRCULAR (FFCC-Moreras-FFCC),3,par_8_21327,VALERAS-SAN ANTONIO,40.0337181091309,-3.60868763923645,19:45:00,19:45:00,1,0,http://www.wikidata.org/entity/Q111388619
9010201_9__1__013_-9__1__013__2_19:45:00_1_-__22_9__1__013_,9__1__013_,9010201_9__1__013_,ESTACIÓN-EST.ARANJUEZ,0,9__1__013__1_-_IT_1,1,L1 CIRCULAR (FFCC-Moreras-FFCC),3,par_8_09572,ABASTOS-FLORIDA,40.0320510864258,-3.60703206062317,19:45:00,19:45:00,2,2,http://www.wikidata.org/entity/Q109946281
9010201_9__1__013_-9__1__013__2_19:45:00_1_-__22_9__1__013_,9__1__013_,9010201_9__1__013_,ESTACIÓN-EST.ARANJUEZ,0,9__1__013__1_-_IT_1,1,L1 CIRCULAR (FFCC-Moreras-FFCC),3,par_8_09576,ABASTOS-AYUNTAMIENTO,40.0319328308105,-3.60386633872986,19:45:00,19:45:00,3,2,http://www.wikidata.org/entity/Q126830041
9010201_9__1__013_-9__1__013__2_19:45:00_1_-__22_9__1__013_,9__1__013_,9010201_9__1__013_,ESTACIÓN-EST.ARANJUEZ,0,9__1__013__1_-_IT_1,1,L1 CIRCULAR (FFCC-Moreras-FFCC),3,par_8_09640,ABASTOS-CONCHA,40.0317115783691,-3.60102796554565,19:45:00,19:45:00,4,2,http://www.wikidata.org/entity/Q42200530
9010201_9__1__013_-9__1__013__2_19:45:00_1_-__22_9__1__013_,9__1__013_,9010201_9__1__013_,ESTACIÓN-EST.ARANJUEZ,0,9__1__013__1_-_IT_1,1,L1 CIRCULAR (FFCC-Moreras-FFCC),3,par_8_09584,FOSO-GOBERNADOR,40.0323944091797,-3.59809231758118,19:45:00,19:45:00,5,2,http://www.wikidata.org/entity/Q27038964
9010201_9__1__013_-9__1__013__2_19:45:00_1_-__22_9__1__013_,9__1__013_,9010201_9__1__013_,ESTACIÓN-EST.ARANJUEZ,0,9__1__013__1_-_IT_1,1,L1 CIRCULAR (FFCC-Moreras-FFCC),3,par_8_09585,FOSO-INFANTAS,40.0333786010742,-3.59798359870911,19:45:00,19:45:00,6,2,http://www.wikidata.org/entity/Q8343724
9010201_9__1__013_-9__1__013__2_19:45:00_1_-__22_9__1__013_,9__1__013_,9010201_9__1__013_,ESTACIÓN-EST.ARANJUEZ,0,9__1__013__1_-_IT_1,1,L1 CIRCULAR (FFCC-Moreras-FFCC),3,par_8_09590,MORERAS-LA BARRACA DE FEDERICO GªLORCA,40.0354804992676,-3.59678292274475,19:45:00,19:45:00,7,2,http://www.wikidata.org/entity/Q5909173
9010201_9__1__013_-9__1__013__2_19:45:00_1_-__22_9__1__013_,9__1__013_,9010201_9__1__013_,ESTACIÓN-EST.ARANJUEZ,0,9__1__013__1_-_IT_1,1,L1 CIRCULAR (FFCC-Moreras-FFCC),3,par_8_09592,MORERAS-ANCHA,40.0353317260742,-3.59467196464539,19:45:00,19:45:00,8,2,http://www.wikidata.org/entity/Q85696104
9010201_9__1__013_-9__1__013__2_19:45:00_1_-__22_9__1__013_,9__1__013_,9010201_9__1__013_,ESTACIÓN-EST.ARANJUEZ,0,9__1__013__1_-_IT_1,1,L1 CIRCULAR (FFCC-Moreras-FFCC),3,par_8_09593,MORERAS-PRIMERO DE MAYO,40.035213470459,-3.59281897544861,19:45:00,19:45:00,9,2,http://www.wikidata.org/entity/Q85696104
9010201_9__1__013_-9__1__013__2_19:45:00_1_-__22_9__1__013_,9__1__013_,9010201_9__1__013_,ESTACIÓN-EST.ARANJUEZ,0,9__1__013__1_-_IT_1,1,L1 CIRCULAR (FFCC-Moreras-FFCC),3,par_8_17126,PRIMERO DE MAYO-POLIDEPORTIVO,40.0340423583984,-3.59273838996887,19:45:00,19:45:00,10,2,http://www.wikidata.org/entity/Q85696104
9010201_9__1__013_-9__1__013__2_19:45:00_1_-__22_9__1__013_,9__1__013_,9010201_9__1__013_,ESTACIÓN-EST.ARANJUEZ,0,9__1__013__1_-_IT_1,1,L1 CIRCULAR (FFCC-Moreras-FFCC),3,par_8_09577,GTA.NUEVO ARANJUEZ-CUARTELES,40.0324363708496,-3.5931932926178,19:45:00,19:45:00,11,2,http://www.wikidata.org/entity/Q24024570
9010201_9__1__013_-9__1__013__2_19:45:00_1_-__22_9__1__013_,9__1__013_,9010201_9__1__013_,ESTACIÓN-EST.ARANJUEZ,0,9__1__013__1_-_IT_1,1,L1 CIRCULAR (FFCC-Moreras-FFCC),3,par_8_09597,MORERAS-COLEGIO,40.0349349975586,-3.58926510810852,19:45:00,19:45:00,12,2,http://www.wikidata.org/entity/Q85696104
9010201_9__1__013_-9__1__013__2_19:45:00_1_-__22_9__1__013_,9__1__013_,9010201_9__1__013_,ESTACIÓN-EST.ARANJUEZ,0,9__1__013__1_-_IT_1,1,L1 CIRCULAR (FFCC-Moreras-FFCC),3,par_8_16102,MORERAS-AUGUSTO MORENO,40.0346069335938,-3.584632396698,19:45:00,19:45:00,13,2,http://www.wikidata.org/entity/Q85696104
9010201_9__1__013_-9__1__013__2_19:45:00_1_-__22_9__1__013_,9__1__013_,9010201_9__1__013_,ESTACIÓN-EST.ARANJUEZ,0,9__1__013__1_-_IT_1,1,L1 CIRCULAR (FFCC-Moreras-FFCC),3,par_8_20631,CARAMILLAR-NORIA,40.0358085632324,-3.57899308204651,19:45:00,19:45:00,14,0,http://www.wikidata.org/entity/Q5755509
9010201_9__1__013_-9__1__013__2_19:45:00_1_-__22_9__1__013_,9__1__013_,9010201_9__1__013_,ESTACIÓN-EST.ARANJUEZ,0,9__1__013__1_-_IT_1,1,L1 CIRCULAR (FFCC-Moreras-FFCC),3,par_8_20632,ESTUDIOS CINEMATOGRÁFICOS-MEDIODÍA,40.037899017334,-3.57871770858765,19:45:00,19:45:00,15,0,http://www.wikidata.org/entity/Q5755509
9010201_9__1__013_-9__1__013__2_19:45:00_1_-__22_9__1__013_,9__1__013_,9010201_9__1__013_,ESTACIÓN-EST.ARANJUEZ,0,9__1__013__1_-_IT_1,1,L1 CIRCULAR (FFCC-Moreras-FFCC),3,par_8_20633,CECILIO LÁZARO-VÍCTIMAS DEL TERRORISMO,40.0358238220215,-3.58082175254822,19:45:00,19:45:00,16,0,http://www.wikidata.org/entity/Q5755509
9010201_9__1__013_-9__1__013__2_19:45:00_1_-__22_9__1__013_,9__1__013_,9010201_9__1__013_,ESTACIÓN-EST.ARANJUEZ,0,9__1__013__1_-_IT_1,1,L1 CIRCULAR (FFCC-Moreras-FFCC),3,par_8_16768,MORERAS-JULIO VALDEÓN,40.0347328186035,-3.58466863632202,19:45:00,19:45:00,17,2,http://www.wikidata.org/entity/Q85696104
9010201_9__1__013_-9__1__013__2_19:45:00_1_-__22_9__1__013_,9__1__013_,9010201_9__1__013_,ESTACIÓN-EST.ARANJUEZ,0,9__1__013__1_-_IT_1,1,L1 CIRCULAR (FFCC-Moreras-FFCC),3,par_8_20630,ÁLVAREZ DE QUINDOS-CÁNDIDO LÓPEZ Y MALTA,40.0346527099609,-3.58845376968384,19:45:00,19:45:00,18,0,http://www.wikidata.org/entity/Q85696104
9010201_9__1__013_-9__1__013__2_19:45:00_1_-__22_9__1__013_,9__1__013_,9010201_9__1__013_,ESTACIÓN-EST.ARANJUEZ,0,9__1__013__1_-_IT_1,1,L1 CIRCULAR (FFCC-Moreras-FFCC),3,par_8_20627,ALVAREZ DE QUINDOS-CUARTELES,40.0328063964844,-3.58992648124695,19:45:00,19:45:00,19,0,http://www.wikidata.org/entity/Q85696104
9010201_9__1__013_-9__1__013__2_19:45:00_1_-__22_9__1__013_,9__1__013_,9010201_9__1__013_,ESTACIÓN-EST.ARANJUEZ,0,9__1__013__1_-_IT_1,1,L1 CIRCULAR (FFCC-Moreras-FFCC),3,par_8_16763,GTA.NUEVO ARANJUEZ-PRIMERO DE MAYO,40.0324859619141,-3.59264302253723,19:45:00,19:45:00,20,2,http://www.wikidata.org/entity/Q24024570
9010201_9__1__013_-9__1__013__2_19:45:00_1_-__22_9__1__013_,9__1__013_,9010201_9__1__013_,ESTACIÓN-EST.ARANJUEZ,0,9__1__013__1_-_IT_1,1,L1 CIRCULAR (FFCC-Moreras-FFCC),3,par_8_09602,PRIMERO DE MAYO-POLIDEPORTIVO,40.0340003967285,-3.59256219863892,19:45:00,19:45:00,21,2,http://www.wikidata.org/entity/Q85696104
9010201_9__1__013_-9__1__013__2_19:45:00_1_-__22_9__1__013_,9__1__013_,9010201_9__1__013_,ESTACIÓN-EST.ARANJUEZ,0,9__1__013__1_-_IT_1,1,L1 CIRCULAR (FFCC-Moreras-FFCC),3,par_8_09594,MORERAS-PRIMERO DE MAYO,40.0353126525879,-3.59279632568359,19:45:00,19:45:00,22,2,http://www.wikidata.org/entity/Q85696104
9010201_9__1__013_-9__1__013__2_19:45:00_1_-__22_9__1__013_,9__1__013_,9010201_9__1__013_,ESTACIÓN-EST.ARANJUEZ,0,9__1__013__1_-_IT_1,1,L1 CIRCULAR (FFCC-Moreras-FFCC),3,par_8_09591,MORERAS-ANCHA,40.035457611084,-3.59477853775024,19:45:00,19:45:00,23,2,http://www.wikidata.org/entity/Q5909173
9010201_9__1__013_-9__1__013__2_19:45:00_1_-__22_9__1__013_,9__1__013_,9010201_9__1__013_,ESTACIÓN-EST.ARANJUEZ,0,9__1__013__1_-_IT_1,1,L1 CIRCULAR (FFCC-Moreras-FFCC),3,par_8_09588,PRÍNCIPE-IGLESIA,40.0357513427734,-3.59848499298096,19:45:00,19:45:00,24,2,http://www.wikidata.org/entity/Q135485669
9010201_9__1__013_-9__1__013__2_19:45:00_1_-__22_9__1__013_,9__1__013_,9010201_9__1__013_,ESTACIÓN-EST.ARANJUEZ,0,9__1__013__1_-_IT_1,1,L1 CIRCULAR (FFCC-Moreras-FFCC),3,par_8_19407,INFANTAS-CAP.ANGOSTO GÓMEZ CASTRILLÓN,40.0348091125488,-3.60132479667664,19:45:00,19:45:00,25,0,http://www.wikidata.org/entity/Q8343724
9010201_9__1__013_-9__1__013__2_19:45:00_1_-__22_9__1__013_,9__1__013_,9010201_9__1__013_,ESTACIÓN-EST.ARANJUEZ,0,9__1__013__1_-_IT_1,1,L1 CIRCULAR (FFCC-Moreras-FFCC),3,par_8_09583,REY-AUDITORIO,40.0323905944824,-3.60051822662354,19:45:00,19:45:00,26,2,http://www.wikidata.org/entity/Q27038964
9010201_9__1__013_-9__1__013__2_19:45:00_1_-__22_9__1__013_,9__1__013_,9010201_9__1__013_,ESTACIÓN-EST.ARANJUEZ,0,9__1__013__1_-_IT_1,1,L1 CIRCULAR (FFCC-Moreras-FFCC),3,par_8_16754,GOBERNADOR-ALMÍBAR,40.0324363708496,-3.60239410400391,19:45:00,19:45:00,27,2,http://www.wikidata.org/entity/Q109946504
9010201_9__1__013_-9__1__013__2_19:45:00_1_-__22_9__1__013_,9__1__013_,9010201_9__1__013_,ESTACIÓN-EST.ARANJUEZ,0,9__1__013__1_-_IT_1,1,L1 CIRCULAR (FFCC-Moreras-FFCC),3,par_8_09571,GOBERNADOR-MERCADO DE ABASTOS,40.0326385498047,-3.60506820678711,19:45:00,19:45:00,28,2,http://www.wikidata.org/entity/Q6010514
9010201_9__1__013_-9__1__013__2_19:45:00_1_-__22_9__1__013_,9__1__013_,9010201_9__1__013_,ESTACIÓN-EST.ARANJUEZ,0,9__1__013__1_-_IT_1,1,L1 CIRCULAR (FFCC-Moreras-FFCC),3,par_8_09573,GOBERNADOR-VALERAS,40.032772064209,-3.60856199264526,19:45:00,19:45:00,29,2,http://www.wikidata.org/entity/Q111388619
9010201_9__1__013_-9__1__013__2_19:45:00_1_-__22_9__1__013_,9__1__013_,9010201_9__1__013_,ESTACIÓN-EST.ARANJUEZ,0,9__1__013__1_-_IT_1,1,L1 CIRCULAR (FFCC-Moreras-FFCC),3,par_8_21328,VALERAS-SAN ANTONIO,40.0337829589844,-3.60854744911194,19:45:00,19:45:00,30,0,http://www.wikidata.org/entity/Q111388619
9010201_9__1__013_-9__1__013__2_19:45:00_1_-__22_9__1__013_,9__1__013_,9010201_9__1__013_,ESTACIÓN-EST.ARANJUEZ,0,9__1__013__1_-_IT_1,1,L1 CIRCULAR (FFCC-Moreras-FFCC),3,par_8_09568,ESTACIÓN-EST.ARANJUEZ,40.0345268249512,-3.61783719062805,19:45:00,19:45:00,31,2,http://www.wikidata.org/entity/Q3394535
9010201_9__1__013_-9__1__013__2_20:45:00_1_-__23_9__1__013_,9__1__013_,9010201_9__1__013_,ESTACIÓN-EST.ARANJUEZ,0,9__1__013__1_-_IT_1,1,L1 CIRCULAR (FFCC-Moreras-FFCC),3,par_8_09568,ESTACIÓN-EST.ARANJUEZ,40.0345268249512,-3.61783719062805,20:45:00,20:45:00,0,2,http://www.wikidata.org/entity/Q3394535
9010201_9__1__013_-9__1__013__2_20:45:00_1_-__23_9__1__013_,9__1__013_,9010201_9__1__013_,ESTACIÓN-EST.ARANJUEZ,0,9__1__013__1_-_IT_1,1,L1 CIRCULAR (FFCC-Moreras-FFCC),3,par_8_21327,VALERAS-SAN ANTONIO,40.0337181091309,-3.60868763923645,20:45:00,20:45:00,1,0,http://www.wikidata.org/entity/Q111388619
9010201_9__1__013_-9__1__013__2_20:45:00_1_-__23_9__1__013_,9__1__013_,9010201_9__1__013_,ESTACIÓN-EST.ARANJUEZ,0,9__1__013__1_-_IT_1,1,L1 CIRCULAR (FFCC-Moreras-FFCC),3,par_8_09572,ABASTOS-FLORIDA,40.0320510864258,-3.60703206062317,20:45:00,20:45:00,2,2,http://www.wikidata.org/entity/Q109946281
9010201_9__1__013_-9__1__013__2_20:45:00_1_-__23_9__1__013_,9__1__013_,9010201_9__1__013_,ESTACIÓN-EST.ARANJUEZ,0,9__1__013__1_-_IT_1,1,L1 CIRCULAR (FFCC-Moreras-FFCC),3,par_8_09576,ABASTOS-AYUNTAMIENTO,40.0319328308105,-3.60386633872986,20:45:00,20:45:00,3,2,http://www.wikidata.org/entity/Q126830041
9010201_9__1__013_-9__1__013__2_20:45:00_1_-__23_9__1__013_,9__1__013_,9010201_9__1__013_,ESTACIÓN-EST.ARANJUEZ,0,9__1__013__1_-_IT_1,1,L1 CIRCULAR (FFCC-Moreras-FFCC),3,par_8_09640,ABASTOS-CONCHA,40.0317115783691,-3.60102796554565,20:45:00,20:45:00,4,2,http://www.wikidata.org/entity/Q42200530
9010201_9__1__013_-9__1__013__2_20:45:00_1_-__23_9__1__013_,9__1__013_,9010201_9__1__013_,ESTACIÓN-EST.ARANJUEZ,0,9__1__013__1_-_IT_1,1,L1 CIRCULAR (FFCC-Moreras-FFCC),3,par_8_09584,FOSO-GOBERNADOR,40.0323944091797,-3.59809231758118,20:45:00,20:45:00,5,2,http://www.wikidata.org/entity/Q27038964
9010201_9__1__013_-9__1__013__2_20:45:00_1_-__23_9__1__013_,9__1__013_,9010201_9__1__013_,ESTACIÓN-EST.ARANJUEZ,0,9__1__013__1_-_IT_1,1,L1 CIRCULAR (FFCC-Moreras-FFCC),3,par_8_09585,FOSO-INFANTAS,40.0333786010742,-3.59798359870911,20:45:00,20:45:00,6,2,http://www.wikidata.org/entity/Q8343724
9010201_9__1__013_-9__1__013__2_20:45:00_1_-__23_9__1__013_,9__1__013_,9010201_9__1__013_,ESTACIÓN-EST.ARANJUEZ,0,9__1__013__1_-_IT_1,1,L1 CIRCULAR (FFCC-Moreras-FFCC),3,par_8_09590,MORERAS-LA BARRACA DE FEDERICO GªLORCA,40.0354804992676,-3.59678292274475,20:45:00,20:45:00,7,2,http://www.wikidata.org/entity/Q5909173
9010201_9__1__013_-9__1__013__2_20:45:00_1_-__23_9__1__013_,9__1__013_,9010201_9__1__013_,ESTACIÓN-EST.ARANJUEZ,0,9__1__013__1_-_IT_1,1,L1 CIRCULAR (FFCC-Moreras-FFCC),3,par_8_09592,MORERAS-ANCHA,40.0353317260742,-3.59467196464539,20:45:00,20:45:00,8,2,http://www.wikidata.org/entity/Q85696104
9010201_9__1__013_-9__1__013__2_20:45:00_1_-__23_9__1__013_,9__1__013_,9010201_9__1__013_,ESTACIÓN-EST.ARANJUEZ,0,9__1__013__1_-_IT_1,1,L1 CIRCULAR (FFCC-Moreras-FFCC),3,par_8_09593,MORERAS-PRIMERO DE MAYO,40.035213470459,-3.59281897544861,20:45:00,20:45:00,9,2,http://www.wikidata.org/entity/Q85696104
9010201_9__1__013_-9__1__013__2_20:45:00_1_-__23_9__1__013_,9__1__013_,9010201_9__1__013_,ESTACIÓN-EST.ARANJUEZ,0,9__1__013__1_-_IT_1,1,L1 CIRCULAR (FFCC-Moreras-FFCC),3,par_8_17126,PRIMERO DE MAYO-POLIDEPORTIVO,40.0340423583984,-3.59273838996887,20:45:00,20:45:00,10,2,http://www.wikidata.org/entity/Q85696104
9010201_9__1__013_-9__1__013__2_20:45:00_1_-__23_9__1__013_,9__1__013_,9010201_9__1__013_,ESTACIÓN-EST.ARANJUEZ,0,9__1__013__1_-_IT_1,1,L1 CIRCULAR (FFCC-Moreras-FFCC),3,par_8_09577,GTA.NUEVO ARANJUEZ-CUARTELES,40.0324363708496,-3.5931932926178,20:45:00,20:45:00,11,2,http://www.wikidata.org/entity/Q24024570
9010201_9__1__013_-9__1__013__2_20:45:00_1_-__23_9__1__013_,9__1__013_,9010201_9__1__013_,ESTACIÓN-EST.ARANJUEZ,0,9__1__013__1_-_IT_1,1,L1 CIRCULAR (FFCC-Moreras-FFCC),3,par_8_09597,MORERAS-COLEGIO,40.0349349975586,-3.58926510810852,20:45:00,20:45:00,12,2,http://www.wikidata.org/entity/Q85696104
9010201_9__1__013_-9__1__013__2_20:45:00_1_-__23_9__1__013_,9__1__013_,9010201_9__1__013_,ESTACIÓN-EST.ARANJUEZ,0,9__1__013__1_-_IT_1,1,L1 CIRCULAR (FFCC-Moreras-FFCC),3,par_8_16102,MORERAS-AUGUSTO MORENO,40.0346069335938,-3.584632396698,20:45:00,20:45:00,13,2,http://www.wikidata.org/entity/Q85696104
9010201_9__1__013_-9__1__013__2_20:45:00_1_-__23_9__1__013_,9__1__013_,9010201_9__1__013_,ESTACIÓN-EST.ARANJUEZ,0,9__1__013__1_-_IT_1,1,L1 CIRCULAR (FFCC-Moreras-FFCC),3,par_8_20631,CARAMILLAR-NORIA,40.0358085632324,-3.57899308204651,20:45:00,20:45:00,14,0,http://www.wikidata.org/entity/Q5755509
9010201_9__1__013_-9__1__013__2_20:45:00_1_-__23_9__1__013_,9__1__013_,9010201_9__1__013_,ESTACIÓN-EST.ARANJUEZ,0,9__1__013__1_-_IT_1,1,L1 CIRCULAR (FFCC-Moreras-FFCC),3,par_8_20632,ESTUDIOS CINEMATOGRÁFICOS-MEDIODÍA,40.037899017334,-3.57871770858765,20:45:00,20:45:00,15,0,http://www.wikidata.org/entity/Q5755509
9010201_9__1__013_-9__1__013__2_20:45:00_1_-__23_9__1__013_,9__1__013_,9010201_9__1__013_,ESTACIÓN-EST.ARANJUEZ,0,9__1__013__1_-_IT_1,1,L1 CIRCULAR (FFCC-Moreras-FFCC),3,par_8_20633,CECILIO LÁZARO-VÍCTIMAS DEL TERRORISMO,40.0358238220215,-3.58082175254822,20:45:00,20:45:00,16,0,http://www.wikidata.org/entity/Q5755509
9010201_9__1__013_-9__1__013__2_20:45:00_1_-__23_9__1__013_,9__1__013_,9010201_9__1__013_,ESTACIÓN-EST.ARANJUEZ,0,9__1__013__1_-_IT_1,1,L1 CIRCULAR (FFCC-Moreras-FFCC),3,par_8_16768,MORERAS-JULIO VALDEÓN,40.0347328186035,-3.58466863632202,20:45:00,20:45:00,17,2,http://www.wikidata.org/entity/Q85696104
9010201_9__1__013_-9__1__013__2_20:45:00_1_-__23_9__1__013_,9__1__013_,9010201_9__1__013_,ESTACIÓN-EST.ARANJUEZ,0,9__1__013__1_-_IT_1,1,L1 CIRCULAR (FFCC-Moreras-FFCC),3,par_8_20630,ÁLVAREZ DE QUINDOS-CÁNDIDO LÓPEZ Y MALTA,40.0346527099609,-3.58845376968384,20:45:00,20:45:00,18,0,http://www.wikidata.org/entity/Q85696104
